{
"type": "FeatureCollection",
"crs": { "type": "name", "properties": { "name": "urn:ogc:def:crs:OGC:1.3:CRS84" } },
"features": [
{ "type": "Feature", "properties": { "id": 15, "PSGC": 60404000, "island_grp": "PANAY", "Province": "AKLAN", "Municipality": "BATAN", "lat": 11.5843929, "lon": 122.4975023, "POI_TYPE": "M", "NODE_TYPE": "L", "nearest_node": 1809537902 }, "geometry": { "type": "Point", "coordinates": [ 122.4975023, 11.5843929 ] } },
{ "type": "Feature", "properties": { "id": 48, "PSGC": 60412000, "island_grp": "PANAY", "Province": "AKLAN", "Municipality": "MALAY", "lat": 11.899847, "lon": 121.9097, "POI_TYPE": "C", "NODE_TYPE": "L", "nearest_node": 2185588989 }, "geometry": { "type": "Point", "coordinates": [ 121.9097, 11.899847 ] } },
{ "type": "Feature", "properties": { "id": 58, "PSGC": 60415000, "island_grp": "PANAY", "Province": "AKLAN", "Municipality": "NEW WASHINGTON", "lat": 11.650127, "lon": 122.4327511, "POI_TYPE": "G", "NODE_TYPE": "L", "nearest_node": 1809537987 }, "geometry": { "type": "Point", "coordinates": [ 122.4327511, 11.650127 ] } },
{ "type": "Feature", "properties": { "id": 10, "PSGC": 60403000, "island_grp": "PANAY", "Province": "AKLAN", "Municipality": "BANGA", "lat": 11.6343018, "lon": 122.351397, "POI_TYPE": "G", "NODE_TYPE": "L", "nearest_node": 2538658731 }, "geometry": { "type": "Point", "coordinates": [ 122.351397, 11.6343018 ] } },
{ "type": "Feature", "properties": { "id": 22, "PSGC": 60407000, "island_grp": "PANAY", "Province": "AKLAN", "Municipality": "KALIBO", "lat": 11.7086362, "lon": 122.3669055, "POI_TYPE": "G", "NODE_TYPE": "L", "nearest_node": 349970121 }, "geometry": { "type": "Point", "coordinates": [ 122.3669055, 11.7086362 ] } },
{ "type": "Feature", "properties": { "id": 39, "PSGC": 60411000, "island_grp": "PANAY", "Province": "AKLAN", "Municipality": "MAKATO", "lat": 11.7124392, "lon": 122.2928041, "POI_TYPE": "G", "NODE_TYPE": "L", "nearest_node": 25745090 }, "geometry": { "type": "Point", "coordinates": [ 122.2928041, 11.7124392 ] } },
{ "type": "Feature", "properties": { "id": 38, "PSGC": 60410000, "island_grp": "PANAY", "Province": "AKLAN", "Municipality": "MADALAG", "lat": 11.5216998, "lon": 122.3090181, "POI_TYPE": "G", "NODE_TYPE": "L", "nearest_node": 3710622999 }, "geometry": { "type": "Point", "coordinates": [ 122.3090181, 11.5216998 ] } },
{ "type": "Feature", "properties": { "id": 52, "PSGC": 60413000, "island_grp": "PANAY", "Province": "AKLAN", "Municipality": "MALINAO", "lat": 11.6428712, "lon": 122.3085085, "POI_TYPE": "G", "NODE_TYPE": "L", "nearest_node": 1230054285 }, "geometry": { "type": "Point", "coordinates": [ 122.3085085, 11.6428712 ] } },
{ "type": "Feature", "properties": { "id": 33, "PSGC": 60409000, "island_grp": "PANAY", "Province": "AKLAN", "Municipality": "LIBACAO", "lat": 11.4822326, "lon": 122.3050672, "POI_TYPE": "G", "NODE_TYPE": "L", "nearest_node": 2765088420 }, "geometry": { "type": "Point", "coordinates": [ 122.3050672, 11.4822326 ] } },
{ "type": "Feature", "properties": { "id": 30, "PSGC": 60408000, "island_grp": "PANAY", "Province": "AKLAN", "Municipality": "LEZO", "lat": 11.6663427, "lon": 122.3281583, "POI_TYPE": "G", "NODE_TYPE": "L", "nearest_node": 2537434925 }, "geometry": { "type": "Point", "coordinates": [ 122.3281583, 11.6663427 ] } },
{ "type": "Feature", "properties": { "id": 63, "PSGC": 60416000, "island_grp": "PANAY", "Province": "AKLAN", "Municipality": "NUMANCIA", "lat": 11.7038167, "lon": 122.328743, "POI_TYPE": "G", "NODE_TYPE": "L", "nearest_node": 1230032622 }, "geometry": { "type": "Point", "coordinates": [ 122.328743, 11.7038167 ] } },
{ "type": "Feature", "properties": { "id": 66, "PSGC": 60417000, "island_grp": "PANAY", "Province": "AKLAN", "Municipality": "TANGALAN", "lat": 11.7770217, "lon": 122.2597915, "POI_TYPE": "G", "NODE_TYPE": "L", "nearest_node": 1776719193 }, "geometry": { "type": "Point", "coordinates": [ 122.2597915, 11.7770217 ] } },
{ "type": "Feature", "properties": { "id": 20, "PSGC": 60406000, "island_grp": "PANAY", "Province": "AKLAN", "Municipality": "IBAJAY", "lat": 11.8177152, "lon": 122.1669978, "POI_TYPE": "G", "NODE_TYPE": "L", "nearest_node": 25745319 }, "geometry": { "type": "Point", "coordinates": [ 122.1669978, 11.8177152 ] } },
{ "type": "Feature", "properties": { "id": 1, "PSGC": 60401000, "island_grp": "PANAY", "Province": "AKLAN", "Municipality": "ALTAVAS", "lat": 11.5345723, "lon": 122.4832088, "POI_TYPE": "G", "NODE_TYPE": "L", "nearest_node": 1809537786 }, "geometry": { "type": "Point", "coordinates": [ 122.4832088, 11.5345723 ] } },
{ "type": "Feature", "properties": { "id": 53, "PSGC": 60414000, "island_grp": "PANAY", "Province": "AKLAN", "Municipality": "NABAS", "lat": 11.83417, "lon": 122.083418, "POI_TYPE": "G", "NODE_TYPE": "L", "nearest_node": 914870077 }, "geometry": { "type": "Point", "coordinates": [ 122.083418, 11.83417 ] } },
{ "type": "Feature", "properties": { "id": 4, "PSGC": 60402000, "island_grp": "PANAY", "Province": "AKLAN", "Municipality": "BALETE", "lat": 11.5560163, "lon": 122.3794341, "POI_TYPE": "C", "NODE_TYPE": "L", "nearest_node": 3689952254 }, "geometry": { "type": "Point", "coordinates": [ 122.3794341, 11.5560163 ] } },
{ "type": "Feature", "properties": { "id": 17, "PSGC": 60405000, "island_grp": "PANAY", "Province": "AKLAN", "Municipality": "BURUANGA", "lat": 11.8485561, "lon": 121.8887937, "POI_TYPE": "P", "NODE_TYPE": "L", "nearest_node": 2185625296 }, "geometry": { "type": "Point", "coordinates": [ 121.8887937, 11.8485561 ] } },
{ "type": "Feature", "properties": { "id": 69, "PSGC": 60601000, "island_grp": "PANAY", "Province": "ANTIQUE", "Municipality": "ANINI-Y", "lat": 10.4303904, "lon": 121.9262937, "POI_TYPE": "G", "NODE_TYPE": "L", "nearest_node": 2930625101 }, "geometry": { "type": "Point", "coordinates": [ 121.9262937, 10.4303904 ] } },
{ "type": "Feature", "properties": { "id": 114, "PSGC": 60611000, "island_grp": "PANAY", "Province": "ANTIQUE", "Municipality": "PANDAN", "lat": 11.7205282, "lon": 122.0962679, "POI_TYPE": "G", "NODE_TYPE": "L", "nearest_node": 2426268537 }, "geometry": { "type": "Point", "coordinates": [ 122.0962679, 11.7205282 ] } },
{ "type": "Feature", "properties": { "id": 140, "PSGC": 60616000, "island_grp": "PANAY", "Province": "ANTIQUE", "Municipality": "SIBALOM", "lat": 10.7894135, "lon": 122.0180869, "POI_TYPE": "G", "NODE_TYPE": "L", "nearest_node": 4628489477 }, "geometry": { "type": "Point", "coordinates": [ 122.0180869, 10.7894135 ] } },
{ "type": "Feature", "properties": { "id": 122, "PSGC": 60613000, "island_grp": "PANAY", "Province": "ANTIQUE", "Municipality": "SAN JOSE", "lat": 10.7468481, "lon": 121.9414723, "POI_TYPE": "G", "NODE_TYPE": "L", "nearest_node": 1799543013 }, "geometry": { "type": "Point", "coordinates": [ 121.9414723, 10.7468481 ] } },
{ "type": "Feature", "properties": { "id": 88, "PSGC": 60605000, "island_grp": "PANAY", "Province": "ANTIQUE", "Municipality": "CALUYA", "lat": 11.9323798, "lon": 121.5475631, "POI_TYPE": "G", "NODE_TYPE": "L", "nearest_node": 1630584320 }, "geometry": { "type": "Point", "coordinates": [ 121.5475631, 11.9323798 ] } },
{ "type": "Feature", "properties": { "id": 132, "PSGC": 60615000, "island_grp": "PANAY", "Province": "ANTIQUE", "Municipality": "SEBASTE", "lat": 11.5894089, "lon": 122.0961392, "POI_TYPE": "G", "NODE_TYPE": "L", "nearest_node": 915046916 }, "geometry": { "type": "Point", "coordinates": [ 122.0961392, 11.5894089 ] } },
{ "type": "Feature", "properties": { "id": 100, "PSGC": 60607000, "island_grp": "PANAY", "Province": "ANTIQUE", "Municipality": "TOBIAS FORNIER", "lat": 10.5163604, "lon": 121.9446158, "POI_TYPE": "G", "NODE_TYPE": "L", "nearest_node": 535276714 }, "geometry": { "type": "Point", "coordinates": [ 121.9446158, 10.5163604 ] } },
{ "type": "Feature", "properties": { "id": 104, "PSGC": 60608000, "island_grp": "PANAY", "Province": "ANTIQUE", "Municipality": "HAMTIC", "lat": 10.7010876, "lon": 121.9817698, "POI_TYPE": "G", "NODE_TYPE": "L", "nearest_node": 1051223175 }, "geometry": { "type": "Point", "coordinates": [ 121.9817698, 10.7010876 ] } },
{ "type": "Feature", "properties": { "id": 149, "PSGC": 60618000, "island_grp": "PANAY", "Province": "ANTIQUE", "Municipality": "VALDERRAMA", "lat": 11.0038166, "lon": 122.1299297, "POI_TYPE": "G", "NODE_TYPE": "L", "nearest_node": 1800121669 }, "geometry": { "type": "Point", "coordinates": [ 122.1299297, 11.0038166 ] } },
{ "type": "Feature", "properties": { "id": 118, "PSGC": 60612000, "island_grp": "PANAY", "Province": "ANTIQUE", "Municipality": "PATNONGON", "lat": 10.9138658, "lon": 121.9957602, "POI_TYPE": "G", "NODE_TYPE": "L", "nearest_node": 1798998690 }, "geometry": { "type": "Point", "coordinates": [ 121.9957602, 10.9138658 ] } },
{ "type": "Feature", "properties": { "id": 79, "PSGC": 60603000, "island_grp": "PANAY", "Province": "ANTIQUE", "Municipality": "BELISON", "lat": 10.8382165, "lon": 121.9592205, "POI_TYPE": "G", "NODE_TYPE": "L", "nearest_node": 4645893629 }, "geometry": { "type": "Point", "coordinates": [ 121.9592205, 10.8382165 ] } },
{ "type": "Feature", "properties": { "id": 108, "PSGC": 60609000, "island_grp": "PANAY", "Province": "ANTIQUE", "Municipality": "LAUA-AN", "lat": 11.1428795, "lon": 122.0417333, "POI_TYPE": "G", "NODE_TYPE": "L", "nearest_node": 1780445922 }, "geometry": { "type": "Point", "coordinates": [ 122.0417333, 11.1428795 ] } },
{ "type": "Feature", "properties": { "id": 143, "PSGC": 60617000, "island_grp": "PANAY", "Province": "ANTIQUE", "Municipality": "TIBIAO", "lat": 11.2893698, "lon": 122.0344645, "POI_TYPE": "G", "NODE_TYPE": "L", "nearest_node": 1776738795 }, "geometry": { "type": "Point", "coordinates": [ 122.0344645, 11.2893698 ] } },
{ "type": "Feature", "properties": { "id": 84, "PSGC": 60604000, "island_grp": "PANAY", "Province": "ANTIQUE", "Municipality": "BUGASONG", "lat": 11.0447, "lon": 122.0650309, "POI_TYPE": "G", "NODE_TYPE": "L", "nearest_node": 2746409461 }, "geometry": { "type": "Point", "coordinates": [ 122.0650309, 11.0447 ] } },
{ "type": "Feature", "properties": { "id": 93, "PSGC": 60606000, "island_grp": "PANAY", "Province": "ANTIQUE", "Municipality": "CULASI", "lat": 11.426597, "lon": 122.0551175, "POI_TYPE": "G", "NODE_TYPE": "LS*", "nearest_node": 4906324173 }, "geometry": { "type": "Point", "coordinates": [ 122.0551175, 11.426597 ] } },
{ "type": "Feature", "properties": { "id": 110, "PSGC": 60610000, "island_grp": "PANAY", "Province": "ANTIQUE", "Municipality": "LIBERTAD", "lat": 11.7698901, "lon": 121.9197249, "POI_TYPE": "G", "NODE_TYPE": "L", "nearest_node": 2797272209 }, "geometry": { "type": "Point", "coordinates": [ 121.9197249, 11.7698901 ] } },
{ "type": "Feature", "properties": { "id": 128, "PSGC": 60614000, "island_grp": "PANAY", "Province": "ANTIQUE", "Municipality": "SAN REMIGIO", "lat": 10.8308929, "lon": 122.0886129, "POI_TYPE": "G", "NODE_TYPE": "L", "nearest_node": 1800119590 }, "geometry": { "type": "Point", "coordinates": [ 122.0886129, 10.8308929 ] } },
{ "type": "Feature", "properties": { "id": 76, "PSGC": 60602000, "island_grp": "PANAY", "Province": "ANTIQUE", "Municipality": "BARBAZA", "lat": 11.1950735, "lon": 122.038461, "POI_TYPE": "C", "NODE_TYPE": "L", "nearest_node": 1780445978 }, "geometry": { "type": "Point", "coordinates": [ 122.038461, 11.1950735 ] } },
{ "type": "Feature", "properties": { "id": 931, "PSGC": 87808000, "island_grp": "REG8", "Province": "BILIRAN", "Municipality": "NAVAL", "lat": 11.5648641, "lon": 124.4013047, "POI_TYPE": "G", "NODE_TYPE": "LS*", "nearest_node": 599515063 }, "geometry": { "type": "Point", "coordinates": [ 124.4013047, 11.5648641 ] } },
{ "type": "Feature", "properties": { "id": 925, "PSGC": 87807000, "island_grp": "REG8", "Province": "BILIRAN", "Municipality": "MARIPIPI", "lat": 11.7767959, "lon": 124.3486878, "POI_TYPE": "G", "NODE_TYPE": "L", "nearest_node": 1723050763 }, "geometry": { "type": "Point", "coordinates": [ 124.3486878, 11.7767959 ] } },
{ "type": "Feature", "properties": { "id": 921, "PSGC": 87805000, "island_grp": "REG8", "Province": "BILIRAN", "Municipality": "CULABA", "lat": 11.6559824, "lon": 124.5375261, "POI_TYPE": "G", "NODE_TYPE": "L", "nearest_node": 1721738916 }, "geometry": { "type": "Point", "coordinates": [ 124.5375261, 11.6559824 ] } },
{ "type": "Feature", "properties": { "id": 916, "PSGC": 87801000, "island_grp": "REG8", "Province": "BILIRAN", "Municipality": "ALMERIA", "lat": 11.620052, "lon": 124.3792945, "POI_TYPE": "C", "NODE_TYPE": "L", "nearest_node": 603555467 }, "geometry": { "type": "Point", "coordinates": [ 124.3792945, 11.620052 ] } },
{ "type": "Feature", "properties": { "id": 918, "PSGC": 87804000, "island_grp": "REG8", "Province": "BILIRAN", "Municipality": "CAIBIRAN", "lat": 11.5707633, "lon": 124.5794678, "POI_TYPE": "C", "NODE_TYPE": "L", "nearest_node": 952038351 }, "geometry": { "type": "Point", "coordinates": [ 124.5794678, 11.5707633 ] } },
{ "type": "Feature", "properties": { "id": 923, "PSGC": 87806000, "island_grp": "REG8", "Province": "BILIRAN", "Municipality": "KAWAYAN", "lat": 11.699265, "lon": 124.4053066, "POI_TYPE": "E", "NODE_TYPE": "L", "nearest_node": 1722914331 }, "geometry": { "type": "Point", "coordinates": [ 124.4053066, 11.699265 ] } },
{ "type": "Feature", "properties": { "id": 928, "PSGC": 87802000, "island_grp": "REG8", "Province": "BILIRAN", "Municipality": "BILIRAN", "lat": 11.4646314, "lon": 124.473424, "POI_TYPE": "P", "NODE_TYPE": "L", "nearest_node": 1674286206 }, "geometry": { "type": "Point", "coordinates": [ 124.473424, 11.4646314 ] } },
{ "type": "Feature", "properties": { "id": 919, "PSGC": 87803000, "island_grp": "REG8", "Province": "BILIRAN", "Municipality": "CABUGCAYAN", "lat": 11.4723677, "lon": 124.5743421, "POI_TYPE": "P", "NODE_TYPE": "L", "nearest_node": 3428796696 }, "geometry": { "type": "Point", "coordinates": [ 124.5743421, 11.4723677 ] } },
{ "type": "Feature", "properties": { "id": 854, "PSGC": 71232000, "island_grp": "BOHOL", "Province": "BOHOL", "Municipality": "MARIBOJOC", "lat": 9.7423249, "lon": 123.8439631, "POI_TYPE": "M", "NODE_TYPE": "L", "nearest_node": 3643712984 }, "geometry": { "type": "Point", "coordinates": [ 123.8439631, 9.7423249 ] } },
{ "type": "Feature", "properties": { "id": 884, "PSGC": 71247000, "island_grp": "BOHOL", "Province": "BOHOL", "Municipality": "VALENCIA", "lat": 9.608012, "lon": 124.2077941, "POI_TYPE": "G", "NODE_TYPE": "L", "nearest_node": 3459223730 }, "geometry": { "type": "Point", "coordinates": [ 124.2077941, 9.608012 ] } },
{ "type": "Feature", "properties": { "id": 832, "PSGC": 71224000, "island_grp": "BOHOL", "Province": "BOHOL", "Municipality": "INABANGA", "lat": 10.0308193, "lon": 124.0653419, "POI_TYPE": "G", "NODE_TYPE": "L", "nearest_node": 297175376 }, "geometry": { "type": "Point", "coordinates": [ 124.0653419, 10.0308193 ] } },
{ "type": "Feature", "properties": { "id": 846, "PSGC": 71228000, "island_grp": "BOHOL", "Province": "BOHOL", "Municipality": "LOAY", "lat": 9.5997873, "lon": 124.0097022, "POI_TYPE": "G", "NODE_TYPE": "L", "nearest_node": 3644091001 }, "geometry": { "type": "Point", "coordinates": [ 124.0097022, 9.5997873 ] } },
{ "type": "Feature", "properties": { "id": 836, "PSGC": 71225000, "island_grp": "BOHOL", "Province": "BOHOL", "Municipality": "JAGNA", "lat": 9.6515655, "lon": 124.370631, "POI_TYPE": "G", "NODE_TYPE": "LS*", "nearest_node": 2537809818 }, "geometry": { "type": "Point", "coordinates": [ 124.370631, 9.6515655 ] } },
{ "type": "Feature", "properties": { "id": 871, "PSGC": 71242000, "island_grp": "BOHOL", "Province": "BOHOL", "Municipality": "TAGBILARAN CITY", "lat": 9.6540035, "lon": 123.8660431, "POI_TYPE": "G", "NODE_TYPE": "LS*", "nearest_node": 2185547346 }, "geometry": { "type": "Point", "coordinates": [ 123.8660431, 9.6540035 ] } },
{ "type": "Feature", "properties": { "id": 860, "PSGC": 71233000, "island_grp": "BOHOL", "Province": "BOHOL", "Municipality": "PANGLAO", "lat": 9.580174, "lon": 123.7525535, "POI_TYPE": "G", "NODE_TYPE": "L", "nearest_node": 678328230 }, "geometry": { "type": "Point", "coordinates": [ 123.7525535, 9.580174 ] } },
{ "type": "Feature", "properties": { "id": 813, "PSGC": 71214000, "island_grp": "BOHOL", "Province": "BOHOL", "Municipality": "CLARIN", "lat": 9.9627323, "lon": 124.0238804, "POI_TYPE": "G", "NODE_TYPE": "L", "nearest_node": 2542710226 }, "geometry": { "type": "Point", "coordinates": [ 124.0238804, 9.9627323 ] } },
{ "type": "Feature", "properties": { "id": 841, "PSGC": 71226000, "island_grp": "BOHOL", "Province": "BOHOL", "Municipality": "GETAFE", "lat": 10.1523026, "lon": 124.1575027, "POI_TYPE": "M", "NODE_TYPE": "LS*", "nearest_node": 2583172183 }, "geometry": { "type": "Point", "coordinates": [ 124.1575027, 10.1523026 ] } },
{ "type": "Feature", "properties": { "id": 787, "PSGC": 71201000, "island_grp": "BOHOL", "Province": "BOHOL", "Municipality": "ALBURQUERQUE", "lat": 9.6100801, "lon": 123.9570236, "POI_TYPE": "G", "NODE_TYPE": "L", "nearest_node": 3643563601 }, "geometry": { "type": "Point", "coordinates": [ 123.9570236, 9.6100801 ] } },
{ "type": "Feature", "properties": { "id": 797, "PSGC": 71206000, "island_grp": "BOHOL", "Province": "BOHOL", "Municipality": "BALILIHAN", "lat": 9.7548655, "lon": 123.9712715, "POI_TYPE": "G", "NODE_TYPE": "L", "nearest_node": 678332518 }, "geometry": { "type": "Point", "coordinates": [ 123.9712715, 9.7548655 ] } },
{ "type": "Feature", "properties": { "id": 826, "PSGC": 71222000, "island_grp": "BOHOL", "Province": "BOHOL", "Municipality": "GARCIA HERNANDEZ", "lat": 9.6144383, "lon": 124.2954433, "POI_TYPE": "G", "NODE_TYPE": "L", "nearest_node": 2540196805 }, "geometry": { "type": "Point", "coordinates": [ 124.2954433, 9.6144383 ] } },
{ "type": "Feature", "properties": { "id": 823, "PSGC": 71220000, "island_grp": "BOHOL", "Province": "BOHOL", "Municipality": "DIMIAO", "lat": 9.6059757, "lon": 124.1624594, "POI_TYPE": "G", "NODE_TYPE": "L", "nearest_node": 3643982407 }, "geometry": { "type": "Point", "coordinates": [ 124.1624594, 9.6059757 ] } },
{ "type": "Feature", "properties": { "id": 794, "PSGC": 71205000, "island_grp": "BOHOL", "Province": "BOHOL", "Municipality": "BACLAYON", "lat": 9.6221285, "lon": 123.9134753, "POI_TYPE": "G", "NODE_TYPE": "L", "nearest_node": 678328811 }, "geometry": { "type": "Point", "coordinates": [ 123.9134753, 9.6221285 ] } },
{ "type": "Feature", "properties": { "id": 788, "PSGC": 71202000, "island_grp": "BOHOL", "Province": "BOHOL", "Municipality": "ALICIA", "lat": 9.8985206, "lon": 124.4404221, "POI_TYPE": "G", "NODE_TYPE": "L", "nearest_node": 3026575428 }, "geometry": { "type": "Point", "coordinates": [ 124.4404221, 9.8985206 ] } },
{ "type": "Feature", "properties": { "id": 809, "PSGC": 71212000, "island_grp": "BOHOL", "Province": "BOHOL", "Municipality": "CARMEN", "lat": 9.8209658, "lon": 124.1969419, "POI_TYPE": "G", "NODE_TYPE": "L", "nearest_node": 2536604358 }, "geometry": { "type": "Point", "coordinates": [ 124.1969419, 9.8209658 ] } },
{ "type": "Feature", "properties": { "id": 806, "PSGC": 71210000, "island_grp": "BOHOL", "Province": "BOHOL", "Municipality": "CALAPE", "lat": 9.8909742, "lon": 123.8709676, "POI_TYPE": "G", "NODE_TYPE": "L", "nearest_node": 3836784271 }, "geometry": { "type": "Point", "coordinates": [ 123.8709676, 9.8909742 ] } },
{ "type": "Feature", "properties": { "id": 831, "PSGC": 71223000, "island_grp": "BOHOL", "Province": "BOHOL", "Municipality": "GUINDULMAN", "lat": 9.7615896, "lon": 124.4877148, "POI_TYPE": "G", "NODE_TYPE": "L", "nearest_node": 3089123934 }, "geometry": { "type": "Point", "coordinates": [ 124.4877148, 9.7615896 ] } },
{ "type": "Feature", "properties": { "id": 888, "PSGC": 71248000, "island_grp": "BOHOL", "Province": "BOHOL", "Municipality": "BIEN UNIDO", "lat": 10.137158, "lon": 124.3791711, "POI_TYPE": "M", "NODE_TYPE": "L", "nearest_node": 1675933536 }, "geometry": { "type": "Point", "coordinates": [ 124.3791711, 10.137158 ] } },
{ "type": "Feature", "properties": { "id": 807, "PSGC": 71211000, "island_grp": "BOHOL", "Province": "BOHOL", "Municipality": "CANDIJAY", "lat": 9.8175723, "lon": 124.4963408, "POI_TYPE": "G", "NODE_TYPE": "L", "nearest_node": 3033796306 }, "geometry": { "type": "Point", "coordinates": [ 124.4963408, 9.8175723 ] } },
{ "type": "Feature", "properties": { "id": 843, "PSGC": 71227000, "island_grp": "BOHOL", "Province": "BOHOL", "Municipality": "LILA", "lat": 9.5905203, "lon": 124.0936983, "POI_TYPE": "M", "NODE_TYPE": "L", "nearest_node": 3460196325 }, "geometry": { "type": "Point", "coordinates": [ 124.0936983, 9.5905203 ] } },
{ "type": "Feature", "properties": { "id": 867, "PSGC": 71239000, "island_grp": "BOHOL", "Province": "BOHOL", "Municipality": "SEVILLA", "lat": 9.7028177, "lon": 124.0456867, "POI_TYPE": "G", "NODE_TYPE": "L", "nearest_node": 3644190980 }, "geometry": { "type": "Point", "coordinates": [ 124.0456867, 9.7028177 ] } },
{ "type": "Feature", "properties": { "id": 849, "PSGC": 71229000, "island_grp": "BOHOL", "Province": "BOHOL", "Municipality": "LOBOC", "lat": 9.6373921, "lon": 124.0311384, "POI_TYPE": "G", "NODE_TYPE": "L", "nearest_node": 1218169405 }, "geometry": { "type": "Point", "coordinates": [ 124.0311384, 9.6373921 ] } },
{ "type": "Feature", "properties": { "id": 819, "PSGC": 71218000, "island_grp": "BOHOL", "Province": "BOHOL", "Municipality": "DANAO", "lat": 9.9472407, "lon": 124.2208779, "POI_TYPE": "G", "NODE_TYPE": "LS*", "nearest_node": 2536605295 }, "geometry": { "type": "Point", "coordinates": [ 124.2208779, 9.9472407 ] } },
{ "type": "Feature", "properties": { "id": 791, "PSGC": 71203000, "island_grp": "BOHOL", "Province": "BOHOL", "Municipality": "ANDA", "lat": 9.7442494, "lon": 124.5758522, "POI_TYPE": "G", "NODE_TYPE": "L", "nearest_node": 2153785174 }, "geometry": { "type": "Point", "coordinates": [ 124.5758522, 9.7442494 ] } },
{ "type": "Feature", "properties": { "id": 877, "PSGC": 71244000, "island_grp": "BOHOL", "Province": "BOHOL", "Municipality": "TRINIDAD", "lat": 10.0793558, "lon": 124.3429801, "POI_TYPE": "G", "NODE_TYPE": "L", "nearest_node": 2203541659 }, "geometry": { "type": "Point", "coordinates": [ 124.3429801, 10.0793558 ] } },
{ "type": "Feature", "properties": { "id": 821, "PSGC": 71219000, "island_grp": "BOHOL", "Province": "BOHOL", "Municipality": "DAUIS", "lat": 9.6252966, "lon": 123.8654423, "POI_TYPE": "G", "NODE_TYPE": "L", "nearest_node": 281446543 }, "geometry": { "type": "Point", "coordinates": [ 123.8654423, 9.6252966 ] } },
{ "type": "Feature", "properties": { "id": 864, "PSGC": 71236000, "island_grp": "BOHOL", "Province": "BOHOL", "Municipality": "SAGBAYAN", "lat": 9.9127992, "lon": 124.092561, "POI_TYPE": "G", "NODE_TYPE": "L", "nearest_node": 2542710002 }, "geometry": { "type": "Point", "coordinates": [ 124.092561, 9.9127992 ] } },
{ "type": "Feature", "properties": { "id": 882, "PSGC": 71246000, "island_grp": "BOHOL", "Province": "BOHOL", "Municipality": "UBAY", "lat": 10.0590473, "lon": 124.4721365, "POI_TYPE": "M", "NODE_TYPE": "LS*", "nearest_node": 2583493459 }, "geometry": { "type": "Point", "coordinates": [ 124.4721365, 10.0590473 ] } },
{ "type": "Feature", "properties": { "id": 800, "PSGC": 71207000, "island_grp": "BOHOL", "Province": "BOHOL", "Municipality": "BATUAN", "lat": 9.7812988, "lon": 124.1473532, "POI_TYPE": "G", "NODE_TYPE": "L", "nearest_node": 2577749499 }, "geometry": { "type": "Point", "coordinates": [ 124.1473532, 9.7812988 ] } },
{ "type": "Feature", "properties": { "id": 817, "PSGC": 71216000, "island_grp": "BOHOL", "Province": "BOHOL", "Municipality": "CORTES", "lat": 9.7218448, "lon": 123.8783115, "POI_TYPE": "G", "NODE_TYPE": "L", "nearest_node": 394744595 }, "geometry": { "type": "Point", "coordinates": [ 123.8783115, 9.7218448 ] } },
{ "type": "Feature", "properties": { "id": 802, "PSGC": 71208000, "island_grp": "BOHOL", "Province": "BOHOL", "Municipality": "BILAR", "lat": 9.7056307, "lon": 124.1037726, "POI_TYPE": "M", "NODE_TYPE": "L", "nearest_node": 1564886892 }, "geometry": { "type": "Point", "coordinates": [ 124.1037726, 9.7056307 ] } },
{ "type": "Feature", "properties": { "id": 875, "PSGC": 71243000, "island_grp": "BOHOL", "Province": "BOHOL", "Municipality": "TALIBON", "lat": 10.1504281, "lon": 124.327206, "POI_TYPE": "G", "NODE_TYPE": "LS*", "nearest_node": 2099395052 }, "geometry": { "type": "Point", "coordinates": [ 124.327206, 10.1504281 ] } },
{ "type": "Feature", "properties": { "id": 879, "PSGC": 71245000, "island_grp": "BOHOL", "Province": "BOHOL", "Municipality": "TUBIGON", "lat": 9.9502841, "lon": 123.9629942, "POI_TYPE": "C", "NODE_TYPE": "LS*", "nearest_node": 3643733299 }, "geometry": { "type": "Point", "coordinates": [ 123.9629942, 9.9502841 ] } },
{ "type": "Feature", "properties": { "id": 862, "PSGC": 71235000, "island_grp": "BOHOL", "Province": "BOHOL", "Municipality": "PRES. CARLOS P. GARCIA", "lat": 10.1225724, "lon": 124.5519698, "POI_TYPE": "P", "NODE_TYPE": "L", "nearest_node": 1675933348 }, "geometry": { "type": "Point", "coordinates": [ 124.5519698, 10.1225724 ] } },
{ "type": "Feature", "properties": { "id": 816, "PSGC": 71215000, "island_grp": "BOHOL", "Province": "BOHOL", "Municipality": "CORELLA", "lat": 9.6868802, "lon": 123.9214253, "POI_TYPE": "G", "NODE_TYPE": "L", "nearest_node": 2583212833 }, "geometry": { "type": "Point", "coordinates": [ 123.9214253, 9.6868802 ] } },
{ "type": "Feature", "properties": { "id": 865, "PSGC": 71237000, "island_grp": "BOHOL", "Province": "BOHOL", "Municipality": "SAN ISIDRO", "lat": 9.8625176, "lon": 123.956286, "POI_TYPE": "G", "NODE_TYPE": "LS*", "nearest_node": 2567355564 }, "geometry": { "type": "Point", "coordinates": [ 123.956286, 9.8625176 ] } },
{ "type": "Feature", "properties": { "id": 895, "PSGC": 71217000, "island_grp": "BOHOL", "Province": "BOHOL", "Municipality": "DAGOHOY", "lat": 9.8993979, "lon": 124.2820376, "POI_TYPE": "C", "NODE_TYPE": "L", "nearest_node": 3213744015 }, "geometry": { "type": "Point", "coordinates": [ 124.2820376, 9.8993979 ] } },
{ "type": "Feature", "properties": { "id": 853, "PSGC": 71231000, "island_grp": "BOHOL", "Province": "BOHOL", "Municipality": "MABINI", "lat": 9.919785, "lon": 124.5603597, "POI_TYPE": "P", "NODE_TYPE": "L", "nearest_node": 3089092618 }, "geometry": { "type": "Point", "coordinates": [ 124.5603597, 9.919785 ] } },
{ "type": "Feature", "properties": { "id": 869, "PSGC": 71240000, "island_grp": "BOHOL", "Province": "BOHOL", "Municipality": "SIERRA BULLONES", "lat": 9.8077405, "lon": 124.2897892, "POI_TYPE": "C", "NODE_TYPE": "L", "nearest_node": 3204248905 }, "geometry": { "type": "Point", "coordinates": [ 124.2897892, 9.8077405 ] } },
{ "type": "Feature", "properties": { "id": 870, "PSGC": 71241000, "island_grp": "BOHOL", "Province": "BOHOL", "Municipality": "SIKATUNA", "lat": 9.6873984, "lon": 123.9738679, "POI_TYPE": "G", "NODE_TYPE": "L", "nearest_node": 3643712931 }, "geometry": { "type": "Point", "coordinates": [ 123.9738679, 9.6873984 ] } },
{ "type": "Feature", "properties": { "id": 851, "PSGC": 71230000, "island_grp": "BOHOL", "Province": "BOHOL", "Municipality": "LOON", "lat": 9.80496, "lon": 123.7973785, "POI_TYPE": "G", "NODE_TYPE": "LS*", "nearest_node": 3675774532 }, "geometry": { "type": "Point", "coordinates": [ 123.7973785, 9.80496 ] } },
{ "type": "Feature", "properties": { "id": 812, "PSGC": 71213000, "island_grp": "BOHOL", "Province": "BOHOL", "Municipality": "CATIGBIAN", "lat": 9.8591298, "lon": 124.0055582, "POI_TYPE": "G", "NODE_TYPE": "L", "nearest_node": 2549443116 }, "geometry": { "type": "Point", "coordinates": [ 124.0055582, 9.8591298 ] } },
{ "type": "Feature", "properties": { "id": 866, "PSGC": 71238000, "island_grp": "BOHOL", "Province": "BOHOL", "Municipality": "SAN MIGUEL", "lat": 9.98491, "lon": 124.33699, "POI_TYPE": "M", "NODE_TYPE": "L", "nearest_node": 2537812034 }, "geometry": { "type": "Point", "coordinates": [ 124.33699, 9.98491 ] } },
{ "type": "Feature", "properties": { "id": 861, "PSGC": 71234000, "island_grp": "BOHOL", "Province": "BOHOL", "Municipality": "PILAR", "lat": 9.83614, "lon": 124.33434, "POI_TYPE": "G", "NODE_TYPE": "L", "nearest_node": 1222945004 }, "geometry": { "type": "Point", "coordinates": [ 124.33434, 9.83614 ] } },
{ "type": "Feature", "properties": { "id": 793, "PSGC": 71204000, "island_grp": "BOHOL", "Province": "BOHOL", "Municipality": "ANTEQUERA", "lat": 9.7811719, "lon": 123.8980579, "POI_TYPE": "E", "NODE_TYPE": "L", "nearest_node": 614548727 }, "geometry": { "type": "Point", "coordinates": [ 123.8980579, 9.7811719 ] } },
{ "type": "Feature", "properties": { "id": 852, "PSGC": 71209000, "island_grp": "BOHOL", "Province": "BOHOL", "Municipality": "BUENAVISTA", "lat": 10.0885298, "lon": 124.1147161, "POI_TYPE": "P", "NODE_TYPE": "L", "nearest_node": 2537502277 }, "geometry": { "type": "Point", "coordinates": [ 124.1147161, 10.0885298 ] } },
{ "type": "Feature", "properties": { "id": 825, "PSGC": 71221000, "island_grp": "BOHOL", "Province": "BOHOL", "Municipality": "DUERO", "lat": 9.7087927, "lon": 124.4055855, "POI_TYPE": "G", "NODE_TYPE": "L", "nearest_node": 3198941968 }, "geometry": { "type": "Point", "coordinates": [ 124.4055855, 9.7087927 ] } },
{ "type": "Feature", "properties": { "id": 196, "PSGC": 61914000, "island_grp": "PANAY", "Province": "CAPIZ", "Municipality": "ROXAS CITY", "lat": 11.5836125, "lon": 122.7525884, "POI_TYPE": "G", "NODE_TYPE": "L", "nearest_node": 2306113918 }, "geometry": { "type": "Point", "coordinates": [ 122.7525884, 11.5836125 ] } },
{ "type": "Feature", "properties": { "id": 186, "PSGC": 61910000, "island_grp": "PANAY", "Province": "CAPIZ", "Municipality": "PANITAN", "lat": 11.4629175, "lon": 122.768451, "POI_TYPE": "G", "NODE_TYPE": "L", "nearest_node": 2396897620 }, "geometry": { "type": "Point", "coordinates": [ 122.768451, 11.4629175 ] } },
{ "type": "Feature", "properties": { "id": 167, "PSGC": 61905000, "island_grp": "PANAY", "Province": "CAPIZ", "Municipality": "IVISAN", "lat": 11.521027, "lon": 122.6927, "POI_TYPE": "G", "NODE_TYPE": "L", "nearest_node": 1406589361 }, "geometry": { "type": "Point", "coordinates": [ 122.6927, 11.521027 ] } },
{ "type": "Feature", "properties": { "id": 171, "PSGC": 61906000, "island_grp": "PANAY", "Province": "CAPIZ", "Municipality": "JAMINDAN", "lat": 11.4083929, "lon": 122.5097895, "POI_TYPE": "G", "NODE_TYPE": "L", "nearest_node": 1830345761 }, "geometry": { "type": "Point", "coordinates": [ 122.5097895, 11.4083929 ] } },
{ "type": "Feature", "properties": { "id": 180, "PSGC": 61908000, "island_grp": "PANAY", "Province": "CAPIZ", "Municipality": "MAMBUSAO", "lat": 11.4295204, "lon": 122.597546, "POI_TYPE": "G", "NODE_TYPE": "L", "nearest_node": 569931233 }, "geometry": { "type": "Point", "coordinates": [ 122.597546, 11.4295204 ] } },
{ "type": "Feature", "properties": { "id": 160, "PSGC": 61903000, "island_grp": "PANAY", "Province": "CAPIZ", "Municipality": "DUMALAG", "lat": 11.3061086, "lon": 122.623314, "POI_TYPE": "G", "NODE_TYPE": "L", "nearest_node": 2551653489 }, "geometry": { "type": "Point", "coordinates": [ 122.623314, 11.3061086 ] } },
{ "type": "Feature", "properties": { "id": 165, "PSGC": 61904000, "island_grp": "PANAY", "Province": "CAPIZ", "Municipality": "DUMARAO", "lat": 11.2621947, "lon": 122.6871398, "POI_TYPE": "G", "NODE_TYPE": "L", "nearest_node": 2538440021 }, "geometry": { "type": "Point", "coordinates": [ 122.6871398, 11.2621947 ] } },
{ "type": "Feature", "properties": { "id": 157, "PSGC": 61902000, "island_grp": "PANAY", "Province": "CAPIZ", "Municipality": "DAO", "lat": 11.3943499, "lon": 122.6861554, "POI_TYPE": "G", "NODE_TYPE": "L", "nearest_node": 2531091423 }, "geometry": { "type": "Point", "coordinates": [ 122.6861554, 11.3943499 ] } },
{ "type": "Feature", "properties": { "id": 207, "PSGC": 61916000, "island_grp": "PANAY", "Province": "CAPIZ", "Municipality": "SIGMA", "lat": 11.4226166, "lon": 122.665261, "POI_TYPE": "G", "NODE_TYPE": "L", "nearest_node": 569931263 }, "geometry": { "type": "Point", "coordinates": [ 122.665261, 11.4226166 ] } },
{ "type": "Feature", "properties": { "id": 153, "PSGC": 61901000, "island_grp": "PANAY", "Province": "CAPIZ", "Municipality": "CUARTERO", "lat": 11.3408245, "lon": 122.6695418, "POI_TYPE": "G", "NODE_TYPE": "L", "nearest_node": 2531090867 }, "geometry": { "type": "Point", "coordinates": [ 122.6695418, 11.3408245 ] } },
{ "type": "Feature", "properties": { "id": 205, "PSGC": 61915000, "island_grp": "PANAY", "Province": "CAPIZ", "Municipality": "SAPI-AN", "lat": 11.4937664, "lon": 122.6048496, "POI_TYPE": "G", "NODE_TYPE": "L", "nearest_node": 2873380672 }, "geometry": { "type": "Point", "coordinates": [ 122.6048496, 11.4937664 ] } },
{ "type": "Feature", "properties": { "id": 214, "PSGC": 61917000, "island_grp": "PANAY", "Province": "CAPIZ", "Municipality": "TAPAZ", "lat": 11.2606348, "lon": 122.5376844, "POI_TYPE": "G", "NODE_TYPE": "L", "nearest_node": 2536029599 }, "geometry": { "type": "Point", "coordinates": [ 122.5376844, 11.2606348 ] } },
{ "type": "Feature", "properties": { "id": 195, "PSGC": 61912000, "island_grp": "PANAY", "Province": "CAPIZ", "Municipality": "PONTEVEDRA", "lat": 11.4818541, "lon": 122.8323922, "POI_TYPE": "G", "NODE_TYPE": "L", "nearest_node": 2527803165 }, "geometry": { "type": "Point", "coordinates": [ 122.8323922, 11.4818541 ] } },
{ "type": "Feature", "properties": { "id": 192, "PSGC": 61911000, "island_grp": "PANAY", "Province": "CAPIZ", "Municipality": "PILAR", "lat": 11.5149769, "lon": 123.0515528, "POI_TYPE": "M", "NODE_TYPE": "L", "nearest_node": 1744171409 }, "geometry": { "type": "Point", "coordinates": [ 123.0515528, 11.5149769 ] } },
{ "type": "Feature", "properties": { "id": 182, "PSGC": 61909000, "island_grp": "PANAY", "Province": "CAPIZ", "Municipality": "PANAY", "lat": 11.5556221, "lon": 122.7932185, "POI_TYPE": "G", "NODE_TYPE": "L", "nearest_node": 1827135100 }, "geometry": { "type": "Point", "coordinates": [ 122.7932185, 11.5556221 ] } },
{ "type": "Feature", "properties": { "id": 177, "PSGC": 61907000, "island_grp": "PANAY", "Province": "CAPIZ", "Municipality": "MA-AYON", "lat": 11.3873584, "lon": 122.7808428, "POI_TYPE": "G", "NODE_TYPE": "L", "nearest_node": 2529696502 }, "geometry": { "type": "Point", "coordinates": [ 122.7808428, 11.3873584 ] } },
{ "type": "Feature", "properties": { "id": 202, "PSGC": 61913000, "island_grp": "PANAY", "Province": "CAPIZ", "Municipality": "PRESIDENT ROXAS", "lat": 11.4308665, "lon": 122.9297054, "POI_TYPE": "G", "NODE_TYPE": "L", "nearest_node": 2532647686 }, "geometry": { "type": "Point", "coordinates": [ 122.9297054, 11.4308665 ] } },
{ "type": "Feature", "properties": { "id": 762, "PSGC": 72246000, "island_grp": "CEBU", "Province": "CEBU", "Municipality": "SIBONGA", "lat": 10.0171798, "lon": 123.621136, "POI_TYPE": "G", "NODE_TYPE": "L", "nearest_node": 3404884503 }, "geometry": { "type": "Point", "coordinates": [ 123.621136, 10.0171798 ] } },
{ "type": "Feature", "properties": { "id": 659, "PSGC": 72217000, "island_grp": "CEBU", "Province": "CEBU", "Municipality": "CEBU CITY", "lat": 10.2929421, "lon": 123.9016387, "POI_TYPE": "G", "NODE_TYPE": "LS*", "nearest_node": 281446259 }, "geometry": { "type": "Point", "coordinates": [ 123.9016387, 10.2929421 ] } },
{ "type": "Feature", "properties": { "id": 759, "PSGC": 72245000, "island_grp": "CEBU", "Province": "CEBU", "Municipality": "SANTANDER", "lat": 9.4172576, "lon": 123.335073, "POI_TYPE": "G", "NODE_TYPE": "LS*", "nearest_node": 1861296878 }, "geometry": { "type": "Point", "coordinates": [ 123.335073, 9.4172576 ] } },
{ "type": "Feature", "properties": { "id": 746, "PSGC": 72239000, "island_grp": "CEBU", "Province": "CEBU", "Municipality": "RONDA", "lat": 9.999884, "lon": 123.409676, "POI_TYPE": "G", "NODE_TYPE": "L", "nearest_node": 1623275131 }, "geometry": { "type": "Point", "coordinates": [ 123.409676, 9.999884 ] } },
{ "type": "Feature", "properties": { "id": 684, "PSGC": 72211000, "island_grp": "CEBU", "Province": "CEBU", "Municipality": "CITY OF BOGO", "lat": 11.0461637, "lon": 123.9791894, "POI_TYPE": "G", "NODE_TYPE": "LS*", "nearest_node": 1645215819 }, "geometry": { "type": "Point", "coordinates": [ 123.9791894, 11.0461637 ] } },
{ "type": "Feature", "properties": { "id": 749, "PSGC": 72241000, "island_grp": "CEBU", "Province": "CEBU", "Municipality": "SAN FERNANDO", "lat": 10.1626204, "lon": 123.7072778, "POI_TYPE": "G", "NODE_TYPE": "L", "nearest_node": 2657156881 }, "geometry": { "type": "Point", "coordinates": [ 123.7072778, 10.1626204 ] } },
{ "type": "Feature", "properties": { "id": 676, "PSGC": 72205000, "island_grp": "CEBU", "Province": "CEBU", "Municipality": "ARGAO", "lat": 9.881208, "lon": 123.6087039, "POI_TYPE": "G", "NODE_TYPE": "LS*", "nearest_node": 898855800 }, "geometry": { "type": "Point", "coordinates": [ 123.6087039, 9.881208 ] } },
{ "type": "Feature", "properties": { "id": 720, "PSGC": 72223000, "island_grp": "CEBU", "Province": "CEBU", "Municipality": "DANAO CITY", "lat": 10.5202871, "lon": 124.0260744, "POI_TYPE": "G", "NODE_TYPE": "LS*", "nearest_node": 367825277 }, "geometry": { "type": "Point", "coordinates": [ 124.0260744, 10.5202871 ] } },
{ "type": "Feature", "properties": { "id": 663, "PSGC": 72230000, "island_grp": "CEBU", "Province": "CEBU", "Municipality": "MANDAUE CITY", "lat": 10.3275143, "lon": 123.9432263, "POI_TYPE": "G", "NODE_TYPE": "L", "nearest_node": 280332433 }, "geometry": { "type": "Point", "coordinates": [ 123.9432263, 10.3275143 ] } },
{ "type": "Feature", "properties": { "id": 666, "PSGC": 72226000, "island_grp": "CEBU", "Province": "CEBU", "Municipality": "LAPU-LAPU CITY", "lat": 10.316463, "lon": 123.965207, "POI_TYPE": "G", "NODE_TYPE": "LS*", "nearest_node": 1157168202 }, "geometry": { "type": "Point", "coordinates": [ 123.965207, 10.316463 ] } },
{ "type": "Feature", "properties": { "id": 711, "PSGC": 72221000, "island_grp": "CEBU", "Province": "CEBU", "Municipality": "DAANBANTAYAN", "lat": 11.2502797, "lon": 123.9982527, "POI_TYPE": "G", "NODE_TYPE": "LS*", "nearest_node": 2534955133 }, "geometry": { "type": "Point", "coordinates": [ 123.9982527, 11.2502797 ] } },
{ "type": "Feature", "properties": { "id": 733, "PSGC": 72232000, "island_grp": "CEBU", "Province": "CEBU", "Municipality": "MINGLANILLA", "lat": 10.2460586, "lon": 123.7954849, "POI_TYPE": "G", "NODE_TYPE": "L", "nearest_node": 2151427109 }, "geometry": { "type": "Point", "coordinates": [ 123.7954849, 10.2460586 ] } },
{ "type": "Feature", "properties": { "id": 692, "PSGC": 72214000, "island_grp": "CEBU", "Province": "CEBU", "Municipality": "CITY OF CARCAR", "lat": 10.105784, "lon": 123.6412525, "POI_TYPE": "G", "NODE_TYPE": "L", "nearest_node": 2653330237 }, "geometry": { "type": "Point", "coordinates": [ 123.6412525, 10.105784 ] } },
{ "type": "Feature", "properties": { "id": 772, "PSGC": 72249000, "island_grp": "CEBU", "Province": "CEBU", "Municipality": "TABUELAN", "lat": 10.8223888, "lon": 123.872357, "POI_TYPE": "G", "NODE_TYPE": "LS*", "nearest_node": 1222786181 }, "geometry": { "type": "Point", "coordinates": [ 123.872357, 10.8223888 ] } },
{ "type": "Feature", "properties": { "id": 723, "PSGC": 72224000, "island_grp": "CEBU", "Province": "CEBU", "Municipality": "DUMANJUG", "lat": 10.0576212, "lon": 123.4366751, "POI_TYPE": "M", "NODE_TYPE": "LS*", "nearest_node": 1694191716 }, "geometry": { "type": "Point", "coordinates": [ 123.4366751, 10.0576212 ] } },
{ "type": "Feature", "properties": { "id": 768, "PSGC": 72248000, "island_grp": "CEBU", "Province": "CEBU", "Municipality": "TABOGON", "lat": 10.9399277, "lon": 124.0282631, "POI_TYPE": "G", "NODE_TYPE": "L", "nearest_node": 1666800464 }, "geometry": { "type": "Point", "coordinates": [ 124.0282631, 10.9399277 ] } },
{ "type": "Feature", "properties": { "id": 705, "PSGC": 72219000, "island_grp": "CEBU", "Province": "CEBU", "Municipality": "CONSOLACION", "lat": 10.3771691, "lon": 123.9570343, "POI_TYPE": "G", "NODE_TYPE": "L", "nearest_node": 1135114120 }, "geometry": { "type": "Point", "coordinates": [ 123.9570343, 10.3771691 ] } },
{ "type": "Feature", "properties": { "id": 704, "PSGC": 72218000, "island_grp": "CEBU", "Province": "CEBU", "Municipality": "COMPOSTELA", "lat": 10.4539247, "lon": 124.0125239, "POI_TYPE": "G", "NODE_TYPE": "L", "nearest_node": 322734942 }, "geometry": { "type": "Point", "coordinates": [ 124.0125239, 10.4539247 ] } },
{ "type": "Feature", "properties": { "id": 781, "PSGC": 72252000, "island_grp": "CEBU", "Province": "CEBU", "Municipality": "TUBURAN", "lat": 10.7279112, "lon": 123.8242435, "POI_TYPE": "G", "NODE_TYPE": "L", "nearest_node": 2081821489 }, "geometry": { "type": "Point", "coordinates": [ 123.8242435, 10.7279112 ] } },
{ "type": "Feature", "properties": { "id": 913, "PSGC": 72210000, "island_grp": "CEBU", "Province": "CEBU", "Municipality": "BARILI", "lat": 10.1121689, "lon": 123.5123992, "POI_TYPE": "M", "NODE_TYPE": "LS*", "nearest_node": 1692756143 }, "geometry": { "type": "Point", "coordinates": [ 123.5123992, 10.1121689 ] } },
{ "type": "Feature", "properties": { "id": 778, "PSGC": 72251000, "island_grp": "CEBU", "Province": "CEBU", "Municipality": "TOLEDO CITY", "lat": 10.3745097, "lon": 123.6341393, "POI_TYPE": "G", "NODE_TYPE": "LS*", "nearest_node": 2303379642 }, "geometry": { "type": "Point", "coordinates": [ 123.6341393, 10.3745097 ] } },
{ "type": "Feature", "properties": { "id": 897, "PSGC": 72228000, "island_grp": "CEBU", "Province": "CEBU", "Municipality": "MADRIDEJOS", "lat": 11.2956719, "lon": 123.7292933, "POI_TYPE": "M", "NODE_TYPE": "L", "nearest_node": 1696225272 }, "geometry": { "type": "Point", "coordinates": [ 123.7292933, 11.2956719 ] } },
{ "type": "Feature", "properties": { "id": 670, "PSGC": 72201000, "island_grp": "CEBU", "Province": "CEBU", "Municipality": "ALCANTARA", "lat": 9.9704145, "lon": 123.4021282, "POI_TYPE": "G", "NODE_TYPE": "L", "nearest_node": 3641980808 }, "geometry": { "type": "Point", "coordinates": [ 123.4021282, 9.9704145 ] } },
{ "type": "Feature", "properties": { "id": 889, "PSGC": 72238000, "island_grp": "CEBU", "Province": "CEBU", "Municipality": "PORO", "lat": 10.6279209, "lon": 124.4099522, "POI_TYPE": "M", "NODE_TYPE": "LS*", "nearest_node": 2529923005 }, "geometry": { "type": "Point", "coordinates": [ 124.4099522, 10.6279209 ] } },
{ "type": "Feature", "properties": { "id": 696, "PSGC": 72215000, "island_grp": "CEBU", "Province": "CEBU", "Municipality": "CARMEN", "lat": 10.5874684, "lon": 124.017266, "POI_TYPE": "G", "NODE_TYPE": "L", "nearest_node": 1675371811 }, "geometry": { "type": "Point", "coordinates": [ 124.017266, 10.5874684 ] } },
{ "type": "Feature", "properties": { "id": 708, "PSGC": 72220000, "island_grp": "CEBU", "Province": "CEBU", "Municipality": "CORDOVA", "lat": 10.2521873, "lon": 123.9498299, "POI_TYPE": "G", "NODE_TYPE": "L", "nearest_node": 1150425781 }, "geometry": { "type": "Point", "coordinates": [ 123.9498299, 10.2521873 ] } },
{ "type": "Feature", "properties": { "id": 736, "PSGC": 72234000, "island_grp": "CEBU", "Province": "CEBU", "Municipality": "CITY OF NAGA", "lat": 10.2075522, "lon": 123.7591195, "POI_TYPE": "G", "NODE_TYPE": "L", "nearest_node": 2160522999 }, "geometry": { "type": "Point", "coordinates": [ 123.7591195, 10.2075522 ] } },
{ "type": "Feature", "properties": { "id": 754, "PSGC": 72243000, "island_grp": "CEBU", "Province": "CEBU", "Municipality": "SAN REMIGIO", "lat": 11.0839326, "lon": 123.9373147, "POI_TYPE": "G", "NODE_TYPE": "LS*", "nearest_node": 1645214564 }, "geometry": { "type": "Point", "coordinates": [ 123.9373147, 11.0839326 ] } },
{ "type": "Feature", "properties": { "id": 738, "PSGC": 72235000, "island_grp": "CEBU", "Province": "CEBU", "Municipality": "OSLOB", "lat": 9.5203645, "lon": 123.4337246, "POI_TYPE": "G", "NODE_TYPE": "L", "nearest_node": 4706046293 }, "geometry": { "type": "Point", "coordinates": [ 123.4337246, 9.5203645 ] } },
{ "type": "Feature", "properties": { "id": 725, "PSGC": 72227000, "island_grp": "CEBU", "Province": "CEBU", "Municipality": "LILOAN", "lat": 10.3997524, "lon": 123.9994717, "POI_TYPE": "G", "NODE_TYPE": "L", "nearest_node": 1628136827 }, "geometry": { "type": "Point", "coordinates": [ 123.9994717, 10.3997524 ] } },
{ "type": "Feature", "properties": { "id": 765, "PSGC": 72247000, "island_grp": "CEBU", "Province": "CEBU", "Municipality": "SOGOD", "lat": 10.7470642, "lon": 124.0043378, "POI_TYPE": "G", "NODE_TYPE": "L", "nearest_node": 1671516533 }, "geometry": { "type": "Point", "coordinates": [ 124.0043378, 10.7470642 ] } },
{ "type": "Feature", "properties": { "id": 730, "PSGC": 72231000, "island_grp": "CEBU", "Province": "CEBU", "Municipality": "MEDELLIN", "lat": 11.1284866, "lon": 123.9612401, "POI_TYPE": "G", "NODE_TYPE": "L", "nearest_node": 1655547075 }, "geometry": { "type": "Point", "coordinates": [ 123.9612401, 11.1284866 ] } },
{ "type": "Feature", "properties": { "id": 699, "PSGC": 72216000, "island_grp": "CEBU", "Province": "CEBU", "Municipality": "CATMON", "lat": 10.7233046, "lon": 124.0134144, "POI_TYPE": "G", "NODE_TYPE": "L", "nearest_node": 1672952708 }, "geometry": { "type": "Point", "coordinates": [ 124.0134144, 10.7233046 ] } },
{ "type": "Feature", "properties": { "id": 674, "PSGC": 72204000, "island_grp": "CEBU", "Province": "CEBU", "Municipality": "ALOGUINSAN", "lat": 10.2228783, "lon": 123.5490435, "POI_TYPE": "M", "NODE_TYPE": "L", "nearest_node": 1407979356 }, "geometry": { "type": "Point", "coordinates": [ 123.5490435, 10.2228783 ] } },
{ "type": "Feature", "properties": { "id": 680, "PSGC": 72207000, "island_grp": "CEBU", "Province": "CEBU", "Municipality": "BADIAN", "lat": 9.8702153, "lon": 123.398872, "POI_TYPE": "G", "NODE_TYPE": "L", "nearest_node": 1945553635 }, "geometry": { "type": "Point", "coordinates": [ 123.398872, 9.8702153 ] } },
{ "type": "Feature", "properties": { "id": 743, "PSGC": 72237000, "island_grp": "CEBU", "Province": "CEBU", "Municipality": "PINAMUNGAHAN", "lat": 10.2709581, "lon": 123.5846525, "POI_TYPE": "M", "NODE_TYPE": "L", "nearest_node": 1407980913 }, "geometry": { "type": "Point", "coordinates": [ 123.5846525, 10.2709581 ] } },
{ "type": "Feature", "properties": { "id": 758, "PSGC": 72244000, "island_grp": "CEBU", "Province": "CEBU", "Municipality": "SANTA FE", "lat": 11.1548769, "lon": 123.792336, "POI_TYPE": "G", "NODE_TYPE": "LS*", "nearest_node": 1637413855 }, "geometry": { "type": "Point", "coordinates": [ 123.792336, 11.1548769 ] } },
{ "type": "Feature", "properties": { "id": 690, "PSGC": 72213000, "island_grp": "CEBU", "Province": "CEBU", "Municipality": "BORBON", "lat": 10.8392702, "lon": 124.0314174, "POI_TYPE": "M", "NODE_TYPE": "L", "nearest_node": 827462108 }, "geometry": { "type": "Point", "coordinates": [ 124.0314174, 10.8392702 ] } },
{ "type": "Feature", "properties": { "id": 776, "PSGC": 72250000, "island_grp": "CEBU", "Province": "CEBU", "Municipality": "CITY OF TALISAY", "lat": 10.2533539, "lon": 123.8294148, "POI_TYPE": "G", "NODE_TYPE": "L", "nearest_node": 2134482856 }, "geometry": { "type": "Point", "coordinates": [ 123.8294148, 10.2533539 ] } },
{ "type": "Feature", "properties": { "id": 906, "PSGC": 72202000, "island_grp": "CEBU", "Province": "CEBU", "Municipality": "ALCOY", "lat": 9.708761, "lon": 123.5077214, "POI_TYPE": "G", "NODE_TYPE": "L", "nearest_node": 1445493374 }, "geometry": { "type": "Point", "coordinates": [ 123.5077214, 9.708761 ] } },
{ "type": "Feature", "properties": { "id": 753, "PSGC": 72242000, "island_grp": "CEBU", "Province": "CEBU", "Municipality": "SAN FRANCISCO", "lat": 10.6469009, "lon": 124.3806624, "POI_TYPE": "C", "NODE_TYPE": "LS*", "nearest_node": 1287676584 }, "geometry": { "type": "Point", "coordinates": [ 124.3806624, 10.6469009 ] } },
{ "type": "Feature", "properties": { "id": 682, "PSGC": 72208000, "island_grp": "CEBU", "Province": "CEBU", "Municipality": "BALAMBAN", "lat": 10.5052815, "lon": 123.713361, "POI_TYPE": "G", "NODE_TYPE": "L", "nearest_node": 2272279569 }, "geometry": { "type": "Point", "coordinates": [ 123.713361, 10.5052815 ] } },
{ "type": "Feature", "properties": { "id": 688, "PSGC": 72212000, "island_grp": "CEBU", "Province": "CEBU", "Municipality": "BOLJOON", "lat": 9.6282134, "lon": 123.4797084, "POI_TYPE": "M", "NODE_TYPE": "L", "nearest_node": 1501319536 }, "geometry": { "type": "Point", "coordinates": [ 123.4797084, 9.6282134 ] } },
{ "type": "Feature", "properties": { "id": 728, "PSGC": 72229000, "island_grp": "CEBU", "Province": "CEBU", "Municipality": "MALABUYOC", "lat": 9.6564098, "lon": 123.3255887, "POI_TYPE": "G", "NODE_TYPE": "L", "nearest_node": 1933285548 }, "geometry": { "type": "Point", "coordinates": [ 123.3255887, 9.6564098 ] } },
{ "type": "Feature", "properties": { "id": 741, "PSGC": 72236000, "island_grp": "CEBU", "Province": "CEBU", "Municipality": "PILAR", "lat": 10.8064646, "lon": 124.5651416, "POI_TYPE": "G", "NODE_TYPE": "LS*", "nearest_node": 1270815677 }, "geometry": { "type": "Point", "coordinates": [ 124.5651416, 10.8064646 ] } },
{ "type": "Feature", "properties": { "id": 715, "PSGC": 72222000, "island_grp": "CEBU", "Province": "CEBU", "Municipality": "DALAGUETE", "lat": 9.7619076, "lon": 123.5329449, "POI_TYPE": "G", "NODE_TYPE": "L", "nearest_node": 947673537 }, "geometry": { "type": "Point", "coordinates": [ 123.5329449, 9.7619076 ] } },
{ "type": "Feature", "properties": { "id": 894, "PSGC": 72240000, "island_grp": "CEBU", "Province": "CEBU", "Municipality": "SAMBOAN", "lat": 9.5504769, "lon": 123.3083797, "POI_TYPE": "Z", "NODE_TYPE": "LS*", "nearest_node": 1907892058 }, "geometry": { "type": "Point", "coordinates": [ 123.3083797, 9.5504769 ] } },
{ "type": "Feature", "properties": { "id": 892, "PSGC": 72206000, "island_grp": "CEBU", "Province": "CEBU", "Municipality": "ASTURIAS", "lat": 10.5672612, "lon": 123.7176847, "POI_TYPE": "C", "NODE_TYPE": "L", "nearest_node": 2270235882 }, "geometry": { "type": "Point", "coordinates": [ 123.7176847, 10.5672612 ] } },
{ "type": "Feature", "properties": { "id": 909, "PSGC": 72233000, "island_grp": "CEBU", "Province": "CEBU", "Municipality": "MOALBAL", "lat": 9.9368949, "lon": 123.3927727, "POI_TYPE": "P", "NODE_TYPE": "L", "nearest_node": 281427848 }, "geometry": { "type": "Point", "coordinates": [ 123.3927727, 9.9368949 ] } },
{ "type": "Feature", "properties": { "id": 724, "PSGC": 72225000, "island_grp": "CEBU", "Province": "CEBU", "Municipality": "GINATILAN", "lat": 9.5694254, "lon": 123.3122957, "POI_TYPE": "C", "NODE_TYPE": "L", "nearest_node": 1907892630 }, "geometry": { "type": "Point", "coordinates": [ 123.3122957, 9.5694254 ] } },
{ "type": "Feature", "properties": { "id": 784, "PSGC": 72253000, "island_grp": "CEBU", "Province": "CEBU", "Municipality": "TUDELA", "lat": 10.6367256, "lon": 124.4711065, "POI_TYPE": "G", "NODE_TYPE": "LS*", "nearest_node": 1142833139 }, "geometry": { "type": "Point", "coordinates": [ 124.4711065, 10.6367256 ] } },
{ "type": "Feature", "properties": { "id": 673, "PSGC": 72203000, "island_grp": "CEBU", "Province": "CEBU", "Municipality": "ALEGRIA", "lat": 9.7293925, "lon": 123.3403409, "POI_TYPE": "G", "NODE_TYPE": "L", "nearest_node": 1941038007 }, "geometry": { "type": "Point", "coordinates": [ 123.3403409, 9.7293925 ] } },
{ "type": "Feature", "properties": { "id": 1214, "PSGC": 72209000, "island_grp": "CEBU", "Province": "CEBU", "Municipality": "BANTAYAN", "lat": 11.16683, "lon": 123.71972, "POI_TYPE": "C", "NODE_TYPE": "LS*", "nearest_node": 1696219563 }, "geometry": { "type": "Point", "coordinates": [ 123.71972, 11.16683 ] } },
{ "type": "Feature", "properties": { "id": 959, "PSGC": 82609000, "island_grp": "SAMAR", "Province": "EASTERN SAMAR", "Municipality": "GUIUAN", "lat": 11.0341697, "lon": 125.7222551, "POI_TYPE": "G", "NODE_TYPE": "LS*", "nearest_node": 2527161665 }, "geometry": { "type": "Point", "coordinates": [ 125.7222551, 11.0341697 ] } },
{ "type": "Feature", "properties": { "id": 977, "PSGC": 82617000, "island_grp": "SAMAR", "Province": "EASTERN SAMAR", "Municipality": "ORAS", "lat": 12.1407856, "lon": 125.4401565, "POI_TYPE": "G", "NODE_TYPE": "L", "nearest_node": 3221229938 }, "geometry": { "type": "Point", "coordinates": [ 125.4401565, 12.1407856 ] } },
{ "type": "Feature", "properties": { "id": 971, "PSGC": 82615000, "island_grp": "SAMAR", "Province": "EASTERN SAMAR", "Municipality": "MAYDOLONG", "lat": 11.50116, "lon": 125.5018634, "POI_TYPE": "G", "NODE_TYPE": "L", "nearest_node": 2528545679 }, "geometry": { "type": "Point", "coordinates": [ 125.5018634, 11.50116 ] } },
{ "type": "Feature", "properties": { "id": 945, "PSGC": 82604000, "island_grp": "SAMAR", "Province": "EASTERN SAMAR", "Municipality": "BORONGAN", "lat": 11.608132, "lon": 125.4323244, "POI_TYPE": "M", "NODE_TYPE": "L", "nearest_node": 1783484224 }, "geometry": { "type": "Point", "coordinates": [ 125.4323244, 11.608132 ] } },
{ "type": "Feature", "properties": { "id": 938, "PSGC": 82602000, "island_grp": "SAMAR", "Province": "EASTERN SAMAR", "Municipality": "BALANGIGA", "lat": 11.1091846, "lon": 125.386464, "POI_TYPE": "G", "NODE_TYPE": "L", "nearest_node": 1783467321 }, "geometry": { "type": "Point", "coordinates": [ 125.386464, 11.1091846 ] } },
{ "type": "Feature", "properties": { "id": 950, "PSGC": 82605000, "island_grp": "SAMAR", "Province": "EASTERN SAMAR", "Municipality": "CAN-AVID", "lat": 11.9991247, "lon": 125.44985, "POI_TYPE": "G", "NODE_TYPE": "L", "nearest_node": 2810294117 }, "geometry": { "type": "Point", "coordinates": [ 125.44985, 11.9991247 ] } },
{ "type": "Feature", "properties": { "id": 978, "PSGC": 82618000, "island_grp": "SAMAR", "Province": "EASTERN SAMAR", "Municipality": "QUINAPONDAN", "lat": 11.1562558, "lon": 125.5202392, "POI_TYPE": "M", "NODE_TYPE": "L", "nearest_node": 2653398893 }, "geometry": { "type": "Point", "coordinates": [ 125.5202392, 11.1562558 ] } },
{ "type": "Feature", "properties": { "id": 935, "PSGC": 82601000, "island_grp": "SAMAR", "Province": "EASTERN SAMAR", "Municipality": "ARTECHE", "lat": 12.2693244, "lon": 125.3712988, "POI_TYPE": "G", "NODE_TYPE": "L", "nearest_node": 3221487522 }, "geometry": { "type": "Point", "coordinates": [ 125.3712988, 12.2693244 ] } },
{ "type": "Feature", "properties": { "id": 954, "PSGC": 82608000, "island_grp": "SAMAR", "Province": "EASTERN SAMAR", "Municipality": "GIPORLOS", "lat": 11.1204754, "lon": 125.4502013, "POI_TYPE": "G", "NODE_TYPE": "L", "nearest_node": 1912374568 }, "geometry": { "type": "Point", "coordinates": [ 125.4502013, 11.1204754 ] } },
{ "type": "Feature", "properties": { "id": 964, "PSGC": 82612000, "island_grp": "SAMAR", "Province": "EASTERN SAMAR", "Municipality": "LAWAAN", "lat": 11.140732, "lon": 125.301033, "POI_TYPE": "C", "NODE_TYPE": "L", "nearest_node": 3624484306 }, "geometry": { "type": "Point", "coordinates": [ 125.301033, 11.140732 ] } },
{ "type": "Feature", "properties": { "id": 982, "PSGC": 82621000, "island_grp": "SAMAR", "Province": "EASTERN SAMAR", "Municipality": "SAN POLICARPO", "lat": 12.1793006, "lon": 125.5077159, "POI_TYPE": "C", "NODE_TYPE": "L", "nearest_node": 2810304150 }, "geometry": { "type": "Point", "coordinates": [ 125.5077159, 12.1793006 ] } },
{ "type": "Feature", "properties": { "id": 981, "PSGC": 82619000, "island_grp": "SAMAR", "Province": "EASTERN SAMAR", "Municipality": "SALCEDO", "lat": 11.1492717, "lon": 125.6629059, "POI_TYPE": "C", "NODE_TYPE": "L", "nearest_node": 2536326613 }, "geometry": { "type": "Point", "coordinates": [ 125.6629059, 11.1492717 ] } },
{ "type": "Feature", "properties": { "id": 951, "PSGC": 82606000, "island_grp": "SAMAR", "Province": "EASTERN SAMAR", "Municipality": "DOLORES", "lat": 12.0381244, "lon": 125.4822564, "POI_TYPE": "E", "NODE_TYPE": "L", "nearest_node": 2810296019 }, "geometry": { "type": "Point", "coordinates": [ 125.4822564, 12.0381244 ] } },
{ "type": "Feature", "properties": { "id": 985, "PSGC": 82623000, "island_grp": "SAMAR", "Province": "EASTERN SAMAR", "Municipality": "TAFT", "lat": 11.9038553, "lon": 125.4174972, "POI_TYPE": "E", "NODE_TYPE": "L", "nearest_node": 3221486180 }, "geometry": { "type": "Point", "coordinates": [ 125.4174972, 11.9038553 ] } },
{ "type": "Feature", "properties": { "id": 1203, "PSGC": 82614000, "island_grp": "SAMAR", "Province": "EASTERN SAMAR", "Municipality": "MASLOG", "lat": 12.1589122, "lon": 125.2469301, "POI_TYPE": "E", "NODE_TYPE": "L", "nearest_node": 3229087534 }, "geometry": { "type": "Point", "coordinates": [ 125.2469301, 12.1589122 ] } },
{ "type": "Feature", "properties": { "id": 972, "PSGC": 82616000, "island_grp": "SAMAR", "Province": "EASTERN SAMAR", "Municipality": "MERCEDES", "lat": 11.0987408, "lon": 125.7098848, "POI_TYPE": "E", "NODE_TYPE": "L", "nearest_node": 2535988920 }, "geometry": { "type": "Point", "coordinates": [ 125.7098848, 11.0987408 ] } },
{ "type": "Feature", "properties": { "id": 942, "PSGC": 82603000, "island_grp": "SAMAR", "Province": "EASTERN SAMAR", "Municipality": "BALANGKAYAN", "lat": 11.4463825, "lon": 125.4928404, "POI_TYPE": "E", "NODE_TYPE": "L", "nearest_node": 2525794841 }, "geometry": { "type": "Point", "coordinates": [ 125.4928404, 11.4463825 ] } },
{ "type": "Feature", "properties": { "id": 984, "PSGC": 82622000, "island_grp": "SAMAR", "Province": "EASTERN SAMAR", "Municipality": "SULAT", "lat": 11.813126, "lon": 125.4521298, "POI_TYPE": "E", "NODE_TYPE": "L", "nearest_node": 2810321304 }, "geometry": { "type": "Point", "coordinates": [ 125.4521298, 11.813126 ] } },
{ "type": "Feature", "properties": { "id": 1212, "PSGC": 82620000, "island_grp": "SAMAR", "Province": "EASTERN SAMAR", "Municipality": "SAN JULIAN", "lat": 11.7669209, "lon": 125.4184019, "POI_TYPE": "E", "NODE_TYPE": "L", "nearest_node": 3226030899 }, "geometry": { "type": "Point", "coordinates": [ 125.4184019, 11.7669209 ] } },
{ "type": "Feature", "properties": { "id": 966, "PSGC": 82613000, "island_grp": "SAMAR", "Province": "EASTERN SAMAR", "Municipality": "LLORENTE", "lat": 11.4109169, "lon": 125.5417157, "POI_TYPE": "Z", "NODE_TYPE": "L", "nearest_node": 2536123716 }, "geometry": { "type": "Point", "coordinates": [ 125.5417157, 11.4109169 ] } },
{ "type": "Feature", "properties": { "id": 962, "PSGC": 82610000, "island_grp": "SAMAR", "Province": "EASTERN SAMAR", "Municipality": "HERNANI", "lat": 11.3240141, "lon": 125.6186628, "POI_TYPE": "E", "NODE_TYPE": "L", "nearest_node": 2538222897 }, "geometry": { "type": "Point", "coordinates": [ 125.6186628, 11.3240141 ] } },
{ "type": "Feature", "properties": { "id": 952, "PSGC": 82607000, "island_grp": "SAMAR", "Province": "EASTERN SAMAR", "Municipality": "GENERAL MACARTHUR", "lat": 11.2472133, "lon": 125.542413, "POI_TYPE": "P", "NODE_TYPE": "L", "nearest_node": 2810321154 }, "geometry": { "type": "Point", "coordinates": [ 125.542413, 11.2472133 ] } },
{ "type": "Feature", "properties": { "id": 963, "PSGC": 82611000, "island_grp": "SAMAR", "Province": "EASTERN SAMAR", "Municipality": "JIPAPAD", "lat": 12.2861608, "lon": 125.2349353, "POI_TYPE": "G", "NODE_TYPE": "L", "nearest_node": 2529594038 }, "geometry": { "type": "Point", "coordinates": [ 125.2349353, 12.2861608 ] } },
{ "type": "Feature", "properties": { "id": 223, "PSGC": 67902000, "island_grp": "GUIMARAS", "Province": "GUIMARAS", "Municipality": "JORDAN", "lat": 10.661309, "lon": 122.5906898, "POI_TYPE": "G", "NODE_TYPE": "LS*", "nearest_node": 3658518407 }, "geometry": { "type": "Point", "coordinates": [ 122.5906898, 10.661309 ] } },
{ "type": "Feature", "properties": { "id": 235, "PSGC": 67903000, "island_grp": "GUIMARAS", "Province": "GUIMARAS", "Municipality": "NUEVA VALENCIA", "lat": 10.5259199, "lon": 122.5397819, "POI_TYPE": "G", "NODE_TYPE": "L", "nearest_node": 1907884395 }, "geometry": { "type": "Point", "coordinates": [ 122.5397819, 10.5259199 ] } },
{ "type": "Feature", "properties": { "id": 220, "PSGC": 67901000, "island_grp": "GUIMARAS", "Province": "GUIMARAS", "Municipality": "BUENAVISTA", "lat": 10.6976482, "lon": 122.6478535, "POI_TYPE": "G", "NODE_TYPE": "LS*", "nearest_node": 1779335004 }, "geometry": { "type": "Point", "coordinates": [ 122.6478535, 10.6976482 ] } },
{ "type": "Feature", "properties": { "id": 237, "PSGC": 67904000, "island_grp": "GUIMARAS", "Province": "GUIMARAS", "Municipality": "SAN LORENZO", "lat": 10.5923943, "lon": 122.6903584, "POI_TYPE": "G", "NODE_TYPE": "LS*", "nearest_node": 1907868441 }, "geometry": { "type": "Point", "coordinates": [ 122.6903584, 10.5923943 ] } },
{ "type": "Feature", "properties": { "id": 244, "PSGC": 67905000, "island_grp": "GUIMARAS", "Province": "GUIMARAS", "Municipality": "SIBUNAG", "lat": 10.5208304, "lon": 122.633155, "POI_TYPE": "G", "NODE_TYPE": "L", "nearest_node": 1907833970 }, "geometry": { "type": "Point", "coordinates": [ 122.633155, 10.5208304 ] } },
{ "type": "Feature", "properties": { "id": 331, "PSGC": 63022000, "island_grp": "ILOILO", "Province": "ILOILO", "Municipality": "ILOILO CITY", "lat": 10.6932388, "lon": 122.5730842, "POI_TYPE": "G", "NODE_TYPE": "LS*", "nearest_node": 841936790 }, "geometry": { "type": "Point", "coordinates": [ 122.5730842, 10.6932388 ] } },
{ "type": "Feature", "properties": { "id": 245, "PSGC": 63001000, "island_grp": "ILOILO", "Province": "ILOILO", "Municipality": "AJUY", "lat": 11.171313, "lon": 123.0200368, "POI_TYPE": "G", "NODE_TYPE": "LS*", "nearest_node": 2536552781 }, "geometry": { "type": "Point", "coordinates": [ 123.0200368, 11.171313 ] } },
{ "type": "Feature", "properties": { "id": 291, "PSGC": 63014000, "island_grp": "ILOILO", "Province": "ILOILO", "Municipality": "CARLES", "lat": 11.573638, "lon": 123.1331295, "POI_TYPE": "G", "NODE_TYPE": "L", "nearest_node": 1643907829 }, "geometry": { "type": "Point", "coordinates": [ 123.1331295, 11.573638 ] } },
{ "type": "Feature", "properties": { "id": 350, "PSGC": 63028000, "island_grp": "ILOILO", "Province": "ILOILO", "Municipality": "LEON", "lat": 10.7806448, "lon": 122.3872447, "POI_TYPE": "G", "NODE_TYPE": "L", "nearest_node": 2556605714 }, "geometry": { "type": "Point", "coordinates": [ 122.3872447, 10.7806448 ] } },
{ "type": "Feature", "properties": { "id": 310, "PSGC": 63020000, "island_grp": "ILOILO", "Province": "ILOILO", "Municipality": "GUIMBAL", "lat": 10.6607608, "lon": 122.3234457, "POI_TYPE": "G", "NODE_TYPE": "L", "nearest_node": 1983926123 }, "geometry": { "type": "Point", "coordinates": [ 122.3234457, 10.6607608 ] } },
{ "type": "Feature", "properties": { "id": 307, "PSGC": 63019000, "island_grp": "ILOILO", "Province": "ILOILO", "Municipality": "ESTANCIA", "lat": 11.4569661, "lon": 123.1509635, "POI_TYPE": "G", "NODE_TYPE": "L", "nearest_node": 2750632048 }, "geometry": { "type": "Point", "coordinates": [ 123.1509635, 11.4569661 ] } },
{ "type": "Feature", "properties": { "id": 266, "PSGC": 63007000, "island_grp": "ILOILO", "Province": "ILOILO", "Municipality": "BAROTAC NUEVO", "lat": 10.8936436, "lon": 122.7040994, "POI_TYPE": "G", "NODE_TYPE": "L", "nearest_node": 2536771386 }, "geometry": { "type": "Point", "coordinates": [ 122.7040994, 10.8936436 ] } },
{ "type": "Feature", "properties": { "id": 296, "PSGC": 63015000, "island_grp": "ILOILO", "Province": "ILOILO", "Municipality": "CONCEPCION", "lat": 11.2151354, "lon": 123.1082252, "POI_TYPE": "G", "NODE_TYPE": "L", "nearest_node": 534727375 }, "geometry": { "type": "Point", "coordinates": [ 123.1082252, 11.2151354 ] } },
{ "type": "Feature", "properties": { "id": 397, "PSGC": 63044000, "island_grp": "ILOILO", "Province": "ILOILO", "Municipality": "SARA", "lat": 11.2572282, "lon": 123.0140394, "POI_TYPE": "G", "NODE_TYPE": "L", "nearest_node": 2536156695 }, "geometry": { "type": "Point", "coordinates": [ 123.0140394, 11.2572282 ] } },
{ "type": "Feature", "properties": { "id": 285, "PSGC": 63013000, "island_grp": "ILOILO", "Province": "ILOILO", "Municipality": "CALINOG", "lat": 11.1224809, "lon": 122.5366813, "POI_TYPE": "G", "NODE_TYPE": "L", "nearest_node": 1150581067 }, "geometry": { "type": "Point", "coordinates": [ 122.5366813, 11.1224809 ] } },
{ "type": "Feature", "properties": { "id": 253, "PSGC": 63002000, "island_grp": "ILOILO", "Province": "ILOILO", "Municipality": "ALIMODIAN", "lat": 10.8159289, "lon": 122.4318928, "POI_TYPE": "G", "NODE_TYPE": "L", "nearest_node": 1815529564 }, "geometry": { "type": "Point", "coordinates": [ 122.4318928, 10.8159289 ] } },
{ "type": "Feature", "properties": { "id": 401, "PSGC": 63045000, "island_grp": "ILOILO", "Province": "ILOILO", "Municipality": "TIGBAUAN", "lat": 10.6740376, "lon": 122.3766607, "POI_TYPE": "G", "NODE_TYPE": "L", "nearest_node": 1947330353 }, "geometry": { "type": "Point", "coordinates": [ 122.3766607, 10.6740376 ] } },
{ "type": "Feature", "properties": { "id": 280, "PSGC": 63012000, "island_grp": "ILOILO", "Province": "ILOILO", "Municipality": "CABATUAN", "lat": 10.8797259, "lon": 122.480945, "POI_TYPE": "G", "NODE_TYPE": "L", "nearest_node": 1813493249 }, "geometry": { "type": "Point", "coordinates": [ 122.480945, 10.8797259 ] } },
{ "type": "Feature", "properties": { "id": 406, "PSGC": 63047000, "island_grp": "ILOILO", "Province": "ILOILO", "Municipality": "ZARRAGA", "lat": 10.8226681, "lon": 122.6089561, "POI_TYPE": "G", "NODE_TYPE": "L", "nearest_node": 1838466517 }, "geometry": { "type": "Point", "coordinates": [ 122.6089561, 10.8226681 ] } },
{ "type": "Feature", "properties": { "id": 375, "PSGC": 63038000, "island_grp": "ILOILO", "Province": "ILOILO", "Municipality": "SAN DIONISIO", "lat": 11.2711464, "lon": 123.094908, "POI_TYPE": "G", "NODE_TYPE": "L", "nearest_node": 1744254037 }, "geometry": { "type": "Point", "coordinates": [ 123.094908, 11.2711464 ] } },
{ "type": "Feature", "properties": { "id": 388, "PSGC": 63042000, "island_grp": "ILOILO", "Province": "ILOILO", "Municipality": "SAN RAFAEL", "lat": 11.1763389, "lon": 122.8282589, "POI_TYPE": "G", "NODE_TYPE": "L", "nearest_node": 2745672519 }, "geometry": { "type": "Point", "coordinates": [ 122.8282589, 11.1763389 ] } },
{ "type": "Feature", "properties": { "id": 367, "PSGC": 63036000, "island_grp": "ILOILO", "Province": "ILOILO", "Municipality": "PAVIA", "lat": 10.7750246, "lon": 122.5421932, "POI_TYPE": "G", "NODE_TYPE": "L", "nearest_node": 941532594 }, "geometry": { "type": "Point", "coordinates": [ 122.5421932, 10.7750246 ] } },
{ "type": "Feature", "properties": { "id": 361, "PSGC": 63034000, "island_grp": "ILOILO", "Province": "ILOILO", "Municipality": "OTON", "lat": 10.692095, "lon": 122.4778095, "POI_TYPE": "G", "NODE_TYPE": "L", "nearest_node": 1140668209 }, "geometry": { "type": "Point", "coordinates": [ 122.4778095, 10.692095 ] } },
{ "type": "Feature", "properties": { "id": 402, "PSGC": 63046000, "island_grp": "ILOILO", "Province": "ILOILO", "Municipality": "TUBUNGAN", "lat": 10.7653833, "lon": 122.3181403, "POI_TYPE": "G", "NODE_TYPE": "L", "nearest_node": 2482057320 }, "geometry": { "type": "Point", "coordinates": [ 122.3181403, 10.7653833 ] } },
{ "type": "Feature", "properties": { "id": 355, "PSGC": 63030000, "island_grp": "ILOILO", "Province": "ILOILO", "Municipality": "MIAGAO", "lat": 10.640751, "lon": 122.2350883, "POI_TYPE": "G", "NODE_TYPE": "L", "nearest_node": 1967747839 }, "geometry": { "type": "Point", "coordinates": [ 122.2350883, 10.640751 ] } },
{ "type": "Feature", "properties": { "id": 343, "PSGC": 63026000, "island_grp": "ILOILO", "Province": "ILOILO", "Municipality": "LEGANES", "lat": 10.7851504, "lon": 122.5901645, "POI_TYPE": "G", "NODE_TYPE": "L", "nearest_node": 2334478252 }, "geometry": { "type": "Point", "coordinates": [ 122.5901645, 10.7851504 ] } },
{ "type": "Feature", "properties": { "id": 384, "PSGC": 63041000, "island_grp": "ILOILO", "Province": "ILOILO", "Municipality": "SAN MIGUEL", "lat": 10.7807502, "lon": 122.4648665, "POI_TYPE": "G", "NODE_TYPE": "L", "nearest_node": 1813702255 }, "geometry": { "type": "Point", "coordinates": [ 122.4648665, 10.7807502 ] } },
{ "type": "Feature", "properties": { "id": 338, "PSGC": 63023000, "island_grp": "ILOILO", "Province": "ILOILO", "Municipality": "JANIUAY", "lat": 10.9493659, "lon": 122.5009167, "POI_TYPE": "G", "NODE_TYPE": "L", "nearest_node": 1813488706 }, "geometry": { "type": "Point", "coordinates": [ 122.5009167, 10.9493659 ] } },
{ "type": "Feature", "properties": { "id": 392, "PSGC": 63043000, "island_grp": "ILOILO", "Province": "ILOILO", "Municipality": "SANTA BARBARA", "lat": 10.8274075, "lon": 122.531223, "POI_TYPE": "G", "NODE_TYPE": "L", "nearest_node": 1813539171 }, "geometry": { "type": "Point", "coordinates": [ 122.531223, 10.8274075 ] } },
{ "type": "Feature", "properties": { "id": 372, "PSGC": 63037000, "island_grp": "ILOILO", "Province": "ILOILO", "Municipality": "POTOTAN", "lat": 10.9429562, "lon": 122.6377791, "POI_TYPE": "G", "NODE_TYPE": "L", "nearest_node": 1145330520 }, "geometry": { "type": "Point", "coordinates": [ 122.6377791, 10.9429562 ] } },
{ "type": "Feature", "properties": { "id": 316, "PSGC": 63021000, "island_grp": "ILOILO", "Province": "ILOILO", "Municipality": "IGBARAS", "lat": 10.7162207, "lon": 122.2654107, "POI_TYPE": "G", "NODE_TYPE": "L", "nearest_node": 2791435733 }, "geometry": { "type": "Point", "coordinates": [ 122.2654107, 10.7162207 ] } },
{ "type": "Feature", "properties": { "id": 377, "PSGC": 63040000, "island_grp": "ILOILO", "Province": "ILOILO", "Municipality": "SAN JOAQUIN", "lat": 10.5865825, "lon": 122.1420854, "POI_TYPE": "G", "NODE_TYPE": "L", "nearest_node": 1814565779 }, "geometry": { "type": "Point", "coordinates": [ 122.1420854, 10.5865825 ] } },
{ "type": "Feature", "properties": { "id": 257, "PSGC": 63003000, "island_grp": "ILOILO", "Province": "ILOILO", "Municipality": "ANILAO", "lat": 10.9778999, "lon": 122.7507484, "POI_TYPE": "G", "NODE_TYPE": "L", "nearest_node": 2536137723 }, "geometry": { "type": "Point", "coordinates": [ 122.7507484, 10.9778999 ] } },
{ "type": "Feature", "properties": { "id": 259, "PSGC": 63005000, "island_grp": "ILOILO", "Province": "ILOILO", "Municipality": "BALASAN", "lat": 11.4722756, "lon": 123.0885458, "POI_TYPE": "G", "NODE_TYPE": "L", "nearest_node": 1744154190 }, "geometry": { "type": "Point", "coordinates": [ 123.0885458, 11.4722756 ] } },
{ "type": "Feature", "properties": { "id": 272, "PSGC": 63008000, "island_grp": "ILOILO", "Province": "ILOILO", "Municipality": "BAROTAC VIEJO", "lat": 11.0429467, "lon": 122.8511596, "POI_TYPE": "G", "NODE_TYPE": "L", "nearest_node": 2531528100 }, "geometry": { "type": "Point", "coordinates": [ 122.8511596, 11.0429467 ] } },
{ "type": "Feature", "properties": { "id": 276, "PSGC": 63010000, "island_grp": "ILOILO", "Province": "ILOILO", "Municipality": "BINGAWAN", "lat": 11.2329704, "lon": 122.5670546, "POI_TYPE": "G", "NODE_TYPE": "L", "nearest_node": 2537461614 }, "geometry": { "type": "Point", "coordinates": [ 122.5670546, 11.2329704 ] } },
{ "type": "Feature", "properties": { "id": 263, "PSGC": 63006000, "island_grp": "ILOILO", "Province": "ILOILO", "Municipality": "BANATE", "lat": 11.0004702, "lon": 122.8185868, "POI_TYPE": "G", "NODE_TYPE": "L", "nearest_node": 2095881053 }, "geometry": { "type": "Point", "coordinates": [ 122.8185868, 11.0004702 ] } },
{ "type": "Feature", "properties": { "id": 299, "PSGC": 63016000, "island_grp": "ILOILO", "Province": "ILOILO", "Municipality": "DINGLE", "lat": 10.9991537, "lon": 122.6712531, "POI_TYPE": "G", "NODE_TYPE": "L", "nearest_node": 1823550605 }, "geometry": { "type": "Point", "coordinates": [ 122.6712531, 10.9991537 ] } },
{ "type": "Feature", "properties": { "id": 358, "PSGC": 63032000, "island_grp": "ILOILO", "Province": "ILOILO", "Municipality": "NEW LUCENA", "lat": 10.8791991, "lon": 122.5976157, "POI_TYPE": "G", "NODE_TYPE": "L", "nearest_node": 2529991127 }, "geometry": { "type": "Point", "coordinates": [ 122.5976157, 10.8791991 ] } },
{ "type": "Feature", "properties": { "id": 340, "PSGC": 63025000, "island_grp": "ILOILO", "Province": "ILOILO", "Municipality": "LAMBUNAO", "lat": 11.0550812, "lon": 122.4758099, "POI_TYPE": "G", "NODE_TYPE": "L", "nearest_node": 2445261225 }, "geometry": { "type": "Point", "coordinates": [ 122.4758099, 11.0550812 ] } },
{ "type": "Feature", "properties": { "id": 410, "PSGC": 63039000, "island_grp": "ILOILO", "Province": "ILOILO", "Municipality": "SAN ENRIQUE", "lat": 11.07164, "lon": 122.6560342, "POI_TYPE": "G", "NODE_TYPE": "L", "nearest_node": 1340673537 }, "geometry": { "type": "Point", "coordinates": [ 122.6560342, 11.07164 ] } },
{ "type": "Feature", "properties": { "id": 351, "PSGC": 63029000, "island_grp": "ILOILO", "Province": "ILOILO", "Municipality": "MAASIN", "lat": 10.8916155, "lon": 122.4350309, "POI_TYPE": "M", "NODE_TYPE": "LS*", "nearest_node": 1812517452 }, "geometry": { "type": "Point", "coordinates": [ 122.4350309, 10.8916155 ] } },
{ "type": "Feature", "properties": { "id": 302, "PSGC": 63018000, "island_grp": "ILOILO", "Province": "ILOILO", "Municipality": "DUMANGAS", "lat": 10.8217407, "lon": 122.7121353, "POI_TYPE": "Z", "NODE_TYPE": "LS*", "nearest_node": 1795289196 }, "geometry": { "type": "Point", "coordinates": [ 122.7121353, 10.8217407 ] } },
{ "type": "Feature", "properties": { "id": 273, "PSGC": 63009000, "island_grp": "ILOILO", "Province": "ILOILO", "Municipality": "BATAD", "lat": 11.418226, "lon": 123.1101912, "POI_TYPE": "G", "NODE_TYPE": "L", "nearest_node": 1744167538 }, "geometry": { "type": "Point", "coordinates": [ 123.1101912, 11.418226 ] } },
{ "type": "Feature", "properties": { "id": 300, "PSGC": 63017000, "island_grp": "ILOILO", "Province": "ILOILO", "Municipality": "DUEAS", "lat": 11.0653067, "lon": 122.6181883, "POI_TYPE": "Z", "NODE_TYPE": "L", "nearest_node": 1363487278 }, "geometry": { "type": "Point", "coordinates": [ 122.6181883, 11.0653067 ] } },
{ "type": "Feature", "properties": { "id": 258, "PSGC": 63004000, "island_grp": "ILOILO", "Province": "ILOILO", "Municipality": "BADIANGAN", "lat": 11.001576, "lon": 122.5165325, "POI_TYPE": "G", "NODE_TYPE": "L", "nearest_node": 3089191656 }, "geometry": { "type": "Point", "coordinates": [ 122.5165325, 11.001576 ] } },
{ "type": "Feature", "properties": { "id": 364, "PSGC": 63035000, "island_grp": "ILOILO", "Province": "ILOILO", "Municipality": "CITY OF PASSI", "lat": 11.1174593, "lon": 122.6462013, "POI_TYPE": "G", "NODE_TYPE": "L", "nearest_node": 1490100604 }, "geometry": { "type": "Point", "coordinates": [ 122.6462013, 11.1174593 ] } },
{ "type": "Feature", "properties": { "id": 345, "PSGC": 63027000, "island_grp": "ILOILO", "Province": "ILOILO", "Municipality": "LEMERY", "lat": 11.2260249, "lon": 122.9297215, "POI_TYPE": "E", "NODE_TYPE": "L", "nearest_node": 2541897215 }, "geometry": { "type": "Point", "coordinates": [ 122.9297215, 11.2260249 ] } },
{ "type": "Feature", "properties": { "id": 357, "PSGC": 63031000, "island_grp": "ILOILO", "Province": "ILOILO", "Municipality": "MINA", "lat": 10.9305946, "lon": 122.5738299, "POI_TYPE": "G", "NODE_TYPE": "L", "nearest_node": 1813611940 }, "geometry": { "type": "Point", "coordinates": [ 122.5738299, 10.9305946 ] } },
{ "type": "Feature", "properties": { "id": 1056, "PSGC": 83748000, "island_grp": "REG8", "Province": "LEYTE", "Municipality": "TANUAN", "lat": 11.1106637, "lon": 125.016405, "POI_TYPE": "G", "NODE_TYPE": "L", "nearest_node": 1107168427 }, "geometry": { "type": "Point", "coordinates": [ 125.016405, 11.1106637 ] } },
{ "type": "Feature", "properties": { "id": 1035, "PSGC": 83738000, "island_grp": "REG8", "Province": "LEYTE", "Municipality": "ORMOC", "lat": 11.0128973, "lon": 124.6046054, "POI_TYPE": "G", "NODE_TYPE": "LS*", "nearest_node": 310947230 }, "geometry": { "type": "Point", "coordinates": [ 124.6046054, 11.0128973 ] } },
{ "type": "Feature", "properties": { "id": 994, "PSGC": 83706000, "island_grp": "REG8", "Province": "LEYTE", "Municipality": "BARUGO", "lat": 11.3255527, "lon": 124.7348562, "POI_TYPE": "G", "NODE_TYPE": "L", "nearest_node": 1671627550 }, "geometry": { "type": "Point", "coordinates": [ 124.7348562, 11.3255527 ] } },
{ "type": "Feature", "properties": { "id": 1042, "PSGC": 83740000, "island_grp": "REG8", "Province": "LEYTE", "Municipality": "PALOMPON", "lat": 11.0479775, "lon": 124.3822664, "POI_TYPE": "G", "NODE_TYPE": "LS*", "nearest_node": 1772788826 }, "geometry": { "type": "Point", "coordinates": [ 124.3822664, 11.0479775 ] } },
{ "type": "Feature", "properties": { "id": 1062, "PSGC": 83749000, "island_grp": "REG8", "Province": "LEYTE", "Municipality": "TOLOSA", "lat": 11.0631455, "lon": 125.0381014, "POI_TYPE": "G", "NODE_TYPE": "L", "nearest_node": 2791902967 }, "geometry": { "type": "Point", "coordinates": [ 125.0381014, 11.0631455 ] } },
{ "type": "Feature", "properties": { "id": 1007, "PSGC": 83719000, "island_grp": "REG8", "Province": "LEYTE", "Municipality": "HILONGOS", "lat": 10.3737709, "lon": 124.7487473, "POI_TYPE": "G", "NODE_TYPE": "LS*", "nearest_node": 1674037982 }, "geometry": { "type": "Point", "coordinates": [ 124.7487473, 10.3737709 ] } },
{ "type": "Feature", "properties": { "id": 1015, "PSGC": 83722000, "island_grp": "REG8", "Province": "LEYTE", "Municipality": "ISABEL", "lat": 10.9264336, "lon": 124.4347465, "POI_TYPE": "G", "NODE_TYPE": "LS*", "nearest_node": 1119628859 }, "geometry": { "type": "Point", "coordinates": [ 124.4347465, 10.9264336 ] } },
{ "type": "Feature", "properties": { "id": 1209, "PSGC": 83710000, "island_grp": "REG8", "Province": "LEYTE", "Municipality": "BURAUEN", "lat": 10.9745333, "lon": 124.8922517, "POI_TYPE": "G", "NODE_TYPE": "L", "nearest_node": 3392169117 }, "geometry": { "type": "Point", "coordinates": [ 124.8922517, 10.9745333 ] } },
{ "type": "Feature", "properties": { "id": 1011, "PSGC": 83721000, "island_grp": "REG8", "Province": "LEYTE", "Municipality": "INOPACAN", "lat": 10.4996325, "lon": 124.7405022, "POI_TYPE": "C", "NODE_TYPE": "L", "nearest_node": 1674001342 }, "geometry": { "type": "Point", "coordinates": [ 124.7405022, 10.4996325 ] } },
{ "type": "Feature", "properties": { "id": 1197, "PSGC": 83735000, "island_grp": "REG8", "Province": "LEYTE", "Municipality": "MAYORGA", "lat": 10.9029411, "lon": 125.0065237, "POI_TYPE": "M", "NODE_TYPE": "L", "nearest_node": 1107282634 }, "geometry": { "type": "Point", "coordinates": [ 125.0065237, 10.9029411 ] } },
{ "type": "Feature", "properties": { "id": 988, "PSGC": 83703000, "island_grp": "REG8", "Province": "LEYTE", "Municipality": "ALBUERA", "lat": 10.9170552, "lon": 124.694497, "POI_TYPE": "G", "NODE_TYPE": "L", "nearest_node": 813940031 }, "geometry": { "type": "Point", "coordinates": [ 124.694497, 10.9170552 ] } },
{ "type": "Feature", "properties": { "id": 1038, "PSGC": 83739000, "island_grp": "REG8", "Province": "LEYTE", "Municipality": "PALO", "lat": 11.1600847, "lon": 124.9901971, "POI_TYPE": "G", "NODE_TYPE": "L", "nearest_node": 1107167918 }, "geometry": { "type": "Point", "coordinates": [ 124.9901971, 11.1600847 ] } },
{ "type": "Feature", "properties": { "id": 1054, "PSGC": 83747000, "island_grp": "REG8", "Province": "LEYTE", "Municipality": "TACLOBAN", "lat": 11.2435671, "lon": 125.0079614, "POI_TYPE": "G", "NODE_TYPE": "LS*", "nearest_node": 1107283139 }, "geometry": { "type": "Point", "coordinates": [ 125.0079614, 11.2435671 ] } },
{ "type": "Feature", "properties": { "id": 1029, "PSGC": 83734000, "island_grp": "REG8", "Province": "LEYTE", "Municipality": "MATALOM", "lat": 10.281974, "lon": 124.7866845, "POI_TYPE": "C", "NODE_TYPE": "L", "nearest_node": 1770288691 }, "geometry": { "type": "Point", "coordinates": [ 124.7866845, 10.281974 ] } },
{ "type": "Feature", "properties": { "id": 1049, "PSGC": 83745000, "island_grp": "REG8", "Province": "LEYTE", "Municipality": "TABANGO", "lat": 11.3047935, "lon": 124.3694401, "POI_TYPE": "P", "NODE_TYPE": "L", "nearest_node": 1774574305 }, "geometry": { "type": "Point", "coordinates": [ 124.3694401, 11.3047935 ] } },
{ "type": "Feature", "properties": { "id": 1021, "PSGC": 83726000, "island_grp": "REG8", "Province": "LEYTE", "Municipality": "KANANGA", "lat": 11.1837487, "lon": 124.5620227, "POI_TYPE": "G", "NODE_TYPE": "L", "nearest_node": 2592490133 }, "geometry": { "type": "Point", "coordinates": [ 124.5620227, 11.1837487 ] } },
{ "type": "Feature", "properties": { "id": 1018, "PSGC": 83725000, "island_grp": "REG8", "Province": "LEYTE", "Municipality": "JULITA", "lat": 10.9730865, "lon": 124.9621975, "POI_TYPE": "G", "NODE_TYPE": "L", "nearest_node": 1107282635 }, "geometry": { "type": "Point", "coordinates": [ 124.9621975, 10.9730865 ] } },
{ "type": "Feature", "properties": { "id": 1005, "PSGC": 83718000, "island_grp": "REG8", "Province": "LEYTE", "Municipality": "DULAG", "lat": 10.9533634, "lon": 125.0317848, "POI_TYPE": "M", "NODE_TYPE": "L", "nearest_node": 1774461490 }, "geometry": { "type": "Point", "coordinates": [ 125.0317848, 10.9533634 ] } },
{ "type": "Feature", "properties": { "id": 1051, "PSGC": 83746000, "island_grp": "REG8", "Province": "LEYTE", "Municipality": "TABONTABON", "lat": 11.0409091, "lon": 124.9655503, "POI_TYPE": "M", "NODE_TYPE": "L", "nearest_node": 1107167509 }, "geometry": { "type": "Point", "coordinates": [ 124.9655503, 11.0409091 ] } },
{ "type": "Feature", "properties": { "id": 1030, "PSGC": 83736000, "island_grp": "REG8", "Province": "LEYTE", "Municipality": "MERIDA", "lat": 10.9688628, "lon": 124.52739, "POI_TYPE": "C", "NODE_TYPE": "L", "nearest_node": 1123918390 }, "geometry": { "type": "Point", "coordinates": [ 124.52739, 10.9688628 ] } },
{ "type": "Feature", "properties": { "id": 1001, "PSGC": 83715000, "island_grp": "REG8", "Province": "LEYTE", "Municipality": "CARIGARA", "lat": 11.3022896, "lon": 124.6893579, "POI_TYPE": "M", "NODE_TYPE": "L", "nearest_node": 2545380064 }, "geometry": { "type": "Point", "coordinates": [ 124.6893579, 11.3022896 ] } },
{ "type": "Feature", "properties": { "id": 999, "PSGC": 83708000, "island_grp": "REG8", "Province": "LEYTE", "Municipality": "BAYBAY", "lat": 10.6765917, "lon": 124.7974133, "POI_TYPE": "G", "NODE_TYPE": "LS*", "nearest_node": 1673983551 }, "geometry": { "type": "Point", "coordinates": [ 124.7974133, 10.6765917 ] } },
{ "type": "Feature", "properties": { "id": 997, "PSGC": 83707000, "island_grp": "REG8", "Province": "LEYTE", "Municipality": "BATO", "lat": 10.3281133, "lon": 124.7889054, "POI_TYPE": "M", "NODE_TYPE": "LS*", "nearest_node": 1770323105 }, "geometry": { "type": "Point", "coordinates": [ 124.7889054, 10.3281133 ] } },
{ "type": "Feature", "properties": { "id": 1025, "PSGC": 83730000, "island_grp": "REG8", "Province": "LEYTE", "Municipality": "MACARTHUR", "lat": 10.8345178, "lon": 124.9976939, "POI_TYPE": "G", "NODE_TYPE": "L", "nearest_node": 1673486762 }, "geometry": { "type": "Point", "coordinates": [ 124.9976939, 10.8345178 ] } },
{ "type": "Feature", "properties": { "id": 986, "PSGC": 83701000, "island_grp": "REG8", "Province": "LEYTE", "Municipality": "ABUYOG", "lat": 10.7398069, "lon": 125.0168395, "POI_TYPE": "C", "NODE_TYPE": "L", "nearest_node": 1673417325 }, "geometry": { "type": "Point", "coordinates": [ 125.0168395, 10.7398069 ] } },
{ "type": "Feature", "properties": { "id": 1047, "PSGC": 83744000, "island_grp": "REG8", "Province": "LEYTE", "Municipality": "SANTA FE", "lat": 11.1856432, "lon": 124.9178982, "POI_TYPE": "G", "NODE_TYPE": "L", "nearest_node": 1671407416 }, "geometry": { "type": "Point", "coordinates": [ 124.9178982, 11.1856432 ] } },
{ "type": "Feature", "properties": { "id": 1026, "PSGC": 83731000, "island_grp": "REG8", "Province": "LEYTE", "Municipality": "MAHAPLAG", "lat": 10.6054385, "lon": 124.9644828, "POI_TYPE": "E", "NODE_TYPE": "L", "nearest_node": 2080777819 }, "geometry": { "type": "Point", "coordinates": [ 124.9644828, 10.6054385 ] } },
{ "type": "Feature", "properties": { "id": 1000, "PSGC": 83713000, "island_grp": "REG8", "Province": "LEYTE", "Municipality": "CALUBIAN", "lat": 11.4486591, "lon": 124.4299614, "POI_TYPE": "P", "NODE_TYPE": "L", "nearest_node": 313146325 }, "geometry": { "type": "Point", "coordinates": [ 124.4299614, 11.4486591 ] } },
{ "type": "Feature", "properties": { "id": 1044, "PSGC": 83741000, "island_grp": "REG8", "Province": "LEYTE", "Municipality": "PASTRANA", "lat": 11.1365082, "lon": 124.8836517, "POI_TYPE": "E", "NODE_TYPE": "L", "nearest_node": 1671345158 }, "geometry": { "type": "Point", "coordinates": [ 124.8836517, 11.1365082 ] } },
{ "type": "Feature", "properties": { "id": 1045, "PSGC": 83742000, "island_grp": "REG8", "Province": "LEYTE", "Municipality": "SAN ISIDRO", "lat": 11.4060582, "lon": 124.3522278, "POI_TYPE": "C", "NODE_TYPE": "L", "nearest_node": 891901287 }, "geometry": { "type": "Point", "coordinates": [ 124.3522278, 11.4060582 ] } },
{ "type": "Feature", "properties": { "id": 1022, "PSGC": 83728000, "island_grp": "REG8", "Province": "LEYTE", "Municipality": "LA PAZ", "lat": 10.8903302, "lon": 124.957552, "POI_TYPE": "C", "NODE_TYPE": "L", "nearest_node": 1671375304 }, "geometry": { "type": "Point", "coordinates": [ 124.957552, 10.8903302 ] } },
{ "type": "Feature", "properties": { "id": 1200, "PSGC": 83714000, "island_grp": "REG8", "Province": "LEYTE", "Municipality": "CAPOOCAN", "lat": 11.2928733, "lon": 124.6434009, "POI_TYPE": "C", "NODE_TYPE": "L", "nearest_node": 2542461532 }, "geometry": { "type": "Point", "coordinates": [ 124.6434009, 11.2928733 ] } },
{ "type": "Feature", "properties": { "id": 1202, "PSGC": 83702000, "island_grp": "REG8", "Province": "LEYTE", "Municipality": "ALANGALANG", "lat": 11.2072924, "lon": 124.8469242, "POI_TYPE": "G", "NODE_TYPE": "L", "nearest_node": 1481992168 }, "geometry": { "type": "Point", "coordinates": [ 124.8469242, 11.2072924 ] } },
{ "type": "Feature", "properties": { "id": 1201, "PSGC": 83705000, "island_grp": "REG8", "Province": "LEYTE", "Municipality": "BABATNGON", "lat": 11.4236629, "lon": 124.8460579, "POI_TYPE": "E", "NODE_TYPE": "L", "nearest_node": 1672008437 }, "geometry": { "type": "Point", "coordinates": [ 124.8460579, 11.4236629 ] } },
{ "type": "Feature", "properties": { "id": 1064, "PSGC": 83750000, "island_grp": "REG8", "Province": "LEYTE", "Municipality": "TUNGA", "lat": 11.245798, "lon": 124.7509789, "POI_TYPE": "E", "NODE_TYPE": "L", "nearest_node": 1671887519 }, "geometry": { "type": "Point", "coordinates": [ 124.7509789, 11.245798 ] } },
{ "type": "Feature", "properties": { "id": 1023, "PSGC": 83729000, "island_grp": "REG8", "Province": "LEYTE", "Municipality": "LEYTE", "lat": 11.369604, "lon": 124.4868565, "POI_TYPE": "C", "NODE_TYPE": "L", "nearest_node": 1774671904 }, "geometry": { "type": "Point", "coordinates": [ 124.4868565, 11.369604 ] } },
{ "type": "Feature", "properties": { "id": 1027, "PSGC": 83733000, "island_grp": "REG8", "Province": "LEYTE", "Municipality": "MATAG-OB", "lat": 11.1451348, "lon": 124.4724959, "POI_TYPE": "C", "NODE_TYPE": "L", "nearest_node": 2352107596 }, "geometry": { "type": "Point", "coordinates": [ 124.4724959, 11.1451348 ] } },
{ "type": "Feature", "properties": { "id": 1065, "PSGC": 83751000, "island_grp": "REG8", "Province": "LEYTE", "Municipality": "VILLABA", "lat": 11.2279507, "lon": 124.3905544, "POI_TYPE": "P", "NODE_TYPE": "L", "nearest_node": 1773634460 }, "geometry": { "type": "Point", "coordinates": [ 124.3905544, 11.2279507 ] } },
{ "type": "Feature", "properties": { "id": 1009, "PSGC": 83720000, "island_grp": "REG8", "Province": "LEYTE", "Municipality": "HINDANG", "lat": 10.4340254, "lon": 124.7271609, "POI_TYPE": "C", "NODE_TYPE": "L", "nearest_node": 1674022244 }, "geometry": { "type": "Point", "coordinates": [ 124.7271609, 10.4340254 ] } },
{ "type": "Feature", "properties": { "id": 1016, "PSGC": 83723000, "island_grp": "REG8", "Province": "LEYTE", "Municipality": "JARO", "lat": 11.1890954, "lon": 124.7824574, "POI_TYPE": "E", "NODE_TYPE": "L", "nearest_node": 1671384595 }, "geometry": { "type": "Point", "coordinates": [ 124.7824574, 11.1890954 ] } },
{ "type": "Feature", "properties": { "id": 1003, "PSGC": 83717000, "island_grp": "REG8", "Province": "LEYTE", "Municipality": "DAGAMI", "lat": 11.0649171, "lon": 124.9032211, "POI_TYPE": "E", "NODE_TYPE": "L", "nearest_node": 1671326700 }, "geometry": { "type": "Point", "coordinates": [ 124.9032211, 11.0649171 ] } },
{ "type": "Feature", "properties": { "id": 1017, "PSGC": 83724000, "island_grp": "REG8", "Province": "LEYTE", "Municipality": "JAVIER (BUGHO)", "lat": 10.791279, "lon": 124.936502, "POI_TYPE": "E", "NODE_TYPE": "L", "nearest_node": 3600012423 }, "geometry": { "type": "Point", "coordinates": [ 124.936502, 10.791279 ] } },
{ "type": "Feature", "properties": { "id": 1046, "PSGC": 83743000, "island_grp": "REG8", "Province": "LEYTE", "Municipality": "SAN MIGUEL", "lat": 11.2935256, "lon": 124.831295, "POI_TYPE": "E", "NODE_TYPE": "L", "nearest_node": 1671494626 }, "geometry": { "type": "Point", "coordinates": [ 124.831295, 11.2935256 ] } },
{ "type": "Feature", "properties": { "id": 414, "PSGC": 64501000, "island_grp": "NEGROS", "Province": "NEGROS OCCIDENTAL", "Municipality": "BACOLOD CITY", "lat": 10.667519, "lon": 122.94515, "POI_TYPE": "G", "NODE_TYPE": "LS*", "nearest_node": 678500988 }, "geometry": { "type": "Point", "coordinates": [ 122.94515, 10.667519 ] } },
{ "type": "Feature", "properties": { "id": 538, "PSGC": 64531000, "island_grp": "NEGROS", "Province": "NEGROS OCCIDENTAL", "Municipality": "VICTORIAS CITY", "lat": 10.9007761, "lon": 123.0714467, "POI_TYPE": "G", "NODE_TYPE": "LS*", "nearest_node": 2536012789 }, "geometry": { "type": "Point", "coordinates": [ 123.0714467, 10.9007761 ] } },
{ "type": "Feature", "properties": { "id": 507, "PSGC": 64523000, "island_grp": "NEGROS", "Province": "NEGROS OCCIDENTAL", "Municipality": "SAGAY CITY", "lat": 10.8768302, "lon": 123.4084357, "POI_TYPE": "G", "NODE_TYPE": "L", "nearest_node": 2782964645 }, "geometry": { "type": "Point", "coordinates": [ 123.4084357, 10.8768302 ] } },
{ "type": "Feature", "properties": { "id": 515, "PSGC": 64524000, "island_grp": "NEGROS", "Province": "NEGROS OCCIDENTAL", "Municipality": "SAN CARLOS CITY", "lat": 10.4929099, "lon": 123.4094829, "POI_TYPE": "G", "NODE_TYPE": "LS*", "nearest_node": 3674480743 }, "geometry": { "type": "Point", "coordinates": [ 123.4094829, 10.4929099 ] } },
{ "type": "Feature", "properties": { "id": 443, "PSGC": 64526000, "island_grp": "NEGROS", "Province": "NEGROS OCCIDENTAL", "Municipality": "SILAY CITY", "lat": 10.8007838, "lon": 122.9750495, "POI_TYPE": "G", "NODE_TYPE": "L", "nearest_node": 391179902 }, "geometry": { "type": "Point", "coordinates": [ 122.9750495, 10.8007838 ] } },
{ "type": "Feature", "properties": { "id": 527, "PSGC": 64527000, "island_grp": "NEGROS", "Province": "NEGROS OCCIDENTAL", "Municipality": "SIPALAY CITY", "lat": 9.748434, "lon": 122.4040326, "POI_TYPE": "G", "NODE_TYPE": "L", "nearest_node": 2824836310 }, "geometry": { "type": "Point", "coordinates": [ 122.4040326, 9.748434 ] } },
{ "type": "Feature", "properties": { "id": 501, "PSGC": 64522000, "island_grp": "NEGROS", "Province": "NEGROS OCCIDENTAL", "Municipality": "PULUPANDAN", "lat": 10.5200181, "lon": 122.8041029, "POI_TYPE": "G", "NODE_TYPE": "LS*", "nearest_node": 710677268 }, "geometry": { "type": "Point", "coordinates": [ 122.8041029, 10.5200181 ] } },
{ "type": "Feature", "properties": { "id": 533, "PSGC": 64529000, "island_grp": "NEGROS", "Province": "NEGROS OCCIDENTAL", "Municipality": "TOBOSO", "lat": 10.7134297, "lon": 123.5165513, "POI_TYPE": "M", "NODE_TYPE": "L", "nearest_node": 2535943126 }, "geometry": { "type": "Point", "coordinates": [ 123.5165513, 10.7134297 ] } },
{ "type": "Feature", "properties": { "id": 491, "PSGC": 64520000, "island_grp": "NEGROS", "Province": "NEGROS OCCIDENTAL", "Municipality": "MURCIA", "lat": 10.6058947, "lon": 123.0404833, "POI_TYPE": "G", "NODE_TYPE": "L", "nearest_node": 697810892 }, "geometry": { "type": "Point", "coordinates": [ 123.0404833, 10.6058947 ] } },
{ "type": "Feature", "properties": { "id": 634, "PSGC": 64509000, "island_grp": "NEGROS", "Province": "NEGROS OCCIDENTAL", "Municipality": "ESCALANTE CITY", "lat": 10.8360668, "lon": 123.5579538, "POI_TYPE": "C", "NODE_TYPE": "LS*", "nearest_node": 2528422884 }, "geometry": { "type": "Point", "coordinates": [ 123.5579538, 10.8360668 ] } },
{ "type": "Feature", "properties": { "id": 483, "PSGC": 64518000, "island_grp": "NEGROS", "Province": "NEGROS OCCIDENTAL", "Municipality": "MANAPLA", "lat": 10.9579453, "lon": 123.1237981, "POI_TYPE": "G", "NODE_TYPE": "L", "nearest_node": 1696927635 }, "geometry": { "type": "Point", "coordinates": [ 123.1237981, 10.9579453 ] } },
{ "type": "Feature", "properties": { "id": 497, "PSGC": 64521000, "island_grp": "NEGROS", "Province": "NEGROS OCCIDENTAL", "Municipality": "PONTEVEDRA", "lat": 10.3752464, "lon": 122.8695234, "POI_TYPE": "M", "NODE_TYPE": "L", "nearest_node": 2576600540 }, "geometry": { "type": "Point", "coordinates": [ 122.8695234, 10.3752464 ] } },
{ "type": "Feature", "properties": { "id": 487, "PSGC": 64519000, "island_grp": "NEGROS", "Province": "NEGROS OCCIDENTAL", "Municipality": "MOISES PADILLA (MAGALLON)", "lat": 10.2698127, "lon": 123.0742925, "POI_TYPE": "G", "NODE_TYPE": "L", "nearest_node": 1620380931 }, "geometry": { "type": "Point", "coordinates": [ 123.0742925, 10.2698127 ] } },
{ "type": "Feature", "properties": { "id": 536, "PSGC": 64530000, "island_grp": "NEGROS", "Province": "NEGROS OCCIDENTAL", "Municipality": "VALLADOLID", "lat": 10.4607418, "lon": 122.8236924, "POI_TYPE": "M", "NODE_TYPE": "L", "nearest_node": 686514204 }, "geometry": { "type": "Point", "coordinates": [ 122.8236924, 10.4607418 ] } },
{ "type": "Feature", "properties": { "id": 457, "PSGC": 64506000, "island_grp": "NEGROS", "Province": "NEGROS OCCIDENTAL", "Municipality": "CANDONI", "lat": 9.8310519, "lon": 122.6429827, "POI_TYPE": "G", "NODE_TYPE": "L", "nearest_node": 2813686551 }, "geometry": { "type": "Point", "coordinates": [ 122.6429827, 9.8310519 ] } },
{ "type": "Feature", "properties": { "id": 453, "PSGC": 64505000, "island_grp": "NEGROS", "Province": "NEGROS OCCIDENTAL", "Municipality": "CALATRAVA", "lat": 10.5939206, "lon": 123.4806042, "POI_TYPE": "G", "NODE_TYPE": "L", "nearest_node": 1700754471 }, "geometry": { "type": "Point", "coordinates": [ 123.4806042, 10.5939206 ] } },
{ "type": "Feature", "properties": { "id": 448, "PSGC": 64502000, "island_grp": "NEGROS", "Province": "NEGROS OCCIDENTAL", "Municipality": "BAGO CITY", "lat": 10.5381083, "lon": 122.8351307, "POI_TYPE": "G", "NODE_TYPE": "L", "nearest_node": 3170949182 }, "geometry": { "type": "Point", "coordinates": [ 122.8351307, 10.5381083 ] } },
{ "type": "Feature", "properties": { "id": 452, "PSGC": 64504000, "island_grp": "NEGROS", "Province": "NEGROS OCCIDENTAL", "Municipality": "CADIZ CITY", "lat": 10.955607, "lon": 123.3105844, "POI_TYPE": "G", "NODE_TYPE": "LS*", "nearest_node": 2544006774 }, "geometry": { "type": "Point", "coordinates": [ 123.3105844, 10.955607 ] } },
{ "type": "Feature", "properties": { "id": 436, "PSGC": 64528000, "island_grp": "NEGROS", "Province": "NEGROS OCCIDENTAL", "Municipality": "TALISAY CITY", "lat": 10.7477427, "lon": 122.9791787, "POI_TYPE": "G", "NODE_TYPE": "L", "nearest_node": 2546441893 }, "geometry": { "type": "Point", "coordinates": [ 122.9791787, 10.7477427 ] } },
{ "type": "Feature", "properties": { "id": 467, "PSGC": 64512000, "island_grp": "NEGROS", "Province": "NEGROS OCCIDENTAL", "Municipality": "HINOBA-AN", "lat": 9.6017906, "lon": 122.4668336, "POI_TYPE": "G", "NODE_TYPE": "L", "nearest_node": 940810120 }, "geometry": { "type": "Point", "coordinates": [ 122.4668336, 9.6017906 ] } },
{ "type": "Feature", "properties": { "id": 523, "PSGC": 64525000, "island_grp": "NEGROS", "Province": "NEGROS OCCIDENTAL", "Municipality": "SAN ENRIQUE", "lat": 10.420084, "lon": 122.849337, "POI_TYPE": "G", "NODE_TYPE": "L", "nearest_node": 3247225299 }, "geometry": { "type": "Point", "coordinates": [ 122.849337, 10.420084 ] } },
{ "type": "Feature", "properties": { "id": 461, "PSGC": 64508000, "island_grp": "NEGROS", "Province": "NEGROS OCCIDENTAL", "Municipality": "ENRIQUE B. MAGALONA (SARAVIA)", "lat": 10.8792939, "lon": 122.9780871, "POI_TYPE": "G", "NODE_TYPE": "L", "nearest_node": 3264611828 }, "geometry": { "type": "Point", "coordinates": [ 122.9780871, 10.8792939 ] } },
{ "type": "Feature", "properties": { "id": 547, "PSGC": 64532000, "island_grp": "NEGROS", "Province": "NEGROS OCCIDENTAL", "Municipality": "SALVADOR BENEDICTO", "lat": 10.5775788, "lon": 123.220655, "POI_TYPE": "G", "NODE_TYPE": "L", "nearest_node": 333549074 }, "geometry": { "type": "Point", "coordinates": [ 123.220655, 10.5775788 ] } },
{ "type": "Feature", "properties": { "id": 450, "PSGC": 64503000, "island_grp": "NEGROS", "Province": "NEGROS OCCIDENTAL", "Municipality": "BINALBAGAN", "lat": 10.1949154, "lon": 122.8618616, "POI_TYPE": "M", "NODE_TYPE": "L", "nearest_node": 2571044757 }, "geometry": { "type": "Point", "coordinates": [ 122.8618616, 10.1949154 ] } },
{ "type": "Feature", "properties": { "id": 474, "PSGC": 64514000, "island_grp": "NEGROS", "Province": "NEGROS OCCIDENTAL", "Municipality": "ISABELA", "lat": 10.2037272, "lon": 122.9926273, "POI_TYPE": "M", "NODE_TYPE": "L", "nearest_node": 2572335427 }, "geometry": { "type": "Point", "coordinates": [ 122.9926273, 10.2037272 ] } },
{ "type": "Feature", "properties": { "id": 475, "PSGC": 64515000, "island_grp": "NEGROS", "Province": "NEGROS OCCIDENTAL", "Municipality": "KABANKALAN CITY", "lat": 10.0040284, "lon": 122.8059483, "POI_TYPE": "G", "NODE_TYPE": "L", "nearest_node": 1909653588 }, "geometry": { "type": "Point", "coordinates": [ 122.8059483, 10.0040284 ] } },
{ "type": "Feature", "properties": { "id": 478, "PSGC": 64516000, "island_grp": "NEGROS", "Province": "NEGROS OCCIDENTAL", "Municipality": "LA CARLOTA CITY", "lat": 10.4268873, "lon": 122.921361, "POI_TYPE": "G", "NODE_TYPE": "L", "nearest_node": 2931665401 }, "geometry": { "type": "Point", "coordinates": [ 122.921361, 10.4268873 ] } },
{ "type": "Feature", "properties": { "id": 464, "PSGC": 64510000, "island_grp": "NEGROS", "Province": "NEGROS OCCIDENTAL", "Municipality": "HIMAMAYLAN CITY", "lat": 10.0997052, "lon": 122.8714585, "POI_TYPE": "G", "NODE_TYPE": "L", "nearest_node": 2562401527 }, "geometry": { "type": "Point", "coordinates": [ 122.8714585, 10.0997052 ] } },
{ "type": "Feature", "properties": { "id": 482, "PSGC": 64517000, "island_grp": "NEGROS", "Province": "NEGROS OCCIDENTAL", "Municipality": "LA CASTELLANA", "lat": 10.3234147, "lon": 123.0185708, "POI_TYPE": "G", "NODE_TYPE": "L", "nearest_node": 704191513 }, "geometry": { "type": "Point", "coordinates": [ 123.0185708, 10.3234147 ] } },
{ "type": "Feature", "properties": { "id": 499, "PSGC": 64511000, "island_grp": "NEGROS", "Province": "NEGROS OCCIDENTAL", "Municipality": "HINIGARAN", "lat": 10.2738401, "lon": 122.8526643, "POI_TYPE": "M", "NODE_TYPE": "L", "nearest_node": 3251948372 }, "geometry": { "type": "Point", "coordinates": [ 122.8526643, 10.2738401 ] } },
{ "type": "Feature", "properties": { "id": 642, "PSGC": 64507000, "island_grp": "NEGROS", "Province": "NEGROS OCCIDENTAL", "Municipality": "CAUAYAN", "lat": 9.9722901, "lon": 122.6239362, "POI_TYPE": "M", "NODE_TYPE": "L", "nearest_node": 2542254532 }, "geometry": { "type": "Point", "coordinates": [ 122.6239362, 9.9722901 ] } },
{ "type": "Feature", "properties": { "id": 470, "PSGC": 64513000, "island_grp": "NEGROS", "Province": "NEGROS OCCIDENTAL", "Municipality": "ILOG", "lat": 10.0241041, "lon": 122.7693044, "POI_TYPE": "G", "NODE_TYPE": "L", "nearest_node": 2822363823 }, "geometry": { "type": "Point", "coordinates": [ 122.7693044, 10.0241041 ] } },
{ "type": "Feature", "properties": { "id": 580, "PSGC": 74610000, "island_grp": "NEGROS", "Province": "NEGROS ORIENTAL", "Municipality": "DUMAGUETE CITY", "lat": 9.3052397, "lon": 123.3094874, "POI_TYPE": "G", "NODE_TYPE": "LS*", "nearest_node": 268432815 }, "geometry": { "type": "Point", "coordinates": [ 123.3094874, 9.3052397 ] } },