id,psgc,island_grp,region,province,municipality,is_capital,lat,lon,poi_type,node_type,nearest_node,nearest_node_lat,nearest_node_lon,nearest_node_dist,pop_2015,pop_2020
15,60404000,PANAY,6,AKLAN,BATAN,,11.586706,122.496377,G,L,7694172451,11.5866986,122.4964842,11.706158520957835,32032,33484
48,60412000,PANAY,6,AKLAN,MALAY,,11.899847,121.9097,C,L,8220327694,11.9000452,121.9095874,25.215283932344963,52973,60077
58,60415000,PANAY,6,AKLAN,NEW WASHINGTON,,11.650127,122.4327511,G,L,7697873863,11.6501972,122.4326294,15.381528508857343,45007,47955
10,60403000,PANAY,6,AKLAN,BANGA,,11.6343018,122.351397,G,L,5451468752,11.6341054,122.3521342,83.20597208487672,39505,40318
22,60407000,PANAY,6,AKLAN,KALIBO,Y,11.7086362,122.3669055,G,L,2524984708,11.7083991,122.3665857,43.67528574559482,80605,89127
39,60411000,PANAY,6,AKLAN,MAKATO,,11.7124392,122.2928041,G,L,7811387509,11.7126084,122.2930979,37.111503670467265,27262,29717
38,60410000,PANAY,6,AKLAN,MADALAG,,11.5216998,122.3090181,G,L,7694851976,11.52138,122.3088863,38.35025649392303,18389,18890
52,60413000,PANAY,6,AKLAN,MALINAO,,11.6428712,122.3085085,G,L,8494612370,11.6425841,122.3086287,34.50382267893231,23194,24517
33,60409000,PANAY,6,AKLAN,LIBACAO,,11.4822326,122.3050672,G,L,2765088420,11.4819167,122.3052154,38.66100349296929,28241,28272
30,60408000,PANAY,6,AKLAN,LEZO,,11.6663427,122.3281583,G,L,2537434925,11.6665408,122.3278843,37.08813897153331,15224,15639
63,60416000,PANAY,6,AKLAN,NUMANCIA,,11.7038167,122.328743,G,L,5296358394,11.7041269,122.3288712,37.21016159151155,31934,35693
66,60417000,PANAY,6,AKLAN,TANGALAN,,11.7770217,122.2597915,G,L,1776719193,11.7770524,122.2595106,30.767149707946654,21916,23704
20,60406000,PANAY,6,AKLAN,IBAJAY,,11.8177152,122.1669978,G,L,25745319,11.8178453,122.1656487,147.54450266981684,49564,52364
1,60401000,PANAY,6,AKLAN,ALTAVAS,,11.5345723,122.4832088,G,L,7690601200,11.5356057,122.4844647,178.67942777553228,24619,25639
53,60414000,PANAY,6,AKLAN,NABAS,,11.828111,122.091786,G,L,25745351,11.8287677,122.0917043,73.56118220843516,36435,40632
4,60402000,PANAY,6,AKLAN,BALETE,,11.5560163,122.3794341,C,L,8929311578,11.5556774,122.3792605,42.163437692216064,28920,30090
17,60405000,PANAY,6,AKLAN,BURUANGA,,11.8446055,121.8887027,G,L,2529776771,11.8448685,121.8888437,33.02557116,19003,19357
69,60601000,PANAY,6,ANTIQUE,ANINI-Y,,10.4303904,121.9262937,G,L,2930625101,10.4299652,121.9263291,47.438371446922105,21201,22018
114,60611000,PANAY,6,ANTIQUE,PANDAN,,11.7205282,122.0962679,G,L,2426268537,11.7205342,122.0965413,29.774357859258245,34333,35965
140,60616000,PANAY,6,ANTIQUE,SIBALOM,,10.7894135,122.0180869,G,L,4628489477,10.7888477,122.0179505,64.65424011757551,60306,63833
122,60613000,PANAY,6,ANTIQUE,SAN JOSE DE BUENAVISTA,Y,10.7468481,121.9414723,G,L,1799543013,10.7464837,121.9411985,50.363789011105844,62534,65140
88,60605000,PANAY,6,ANTIQUE,CALUYA,,11.9323798,121.5475631,G,L,1630584320,11.9320843,121.5474678,34.45506618,35496,38908
132,60615000,PANAY,6,ANTIQUE,SEBASTE,,11.5894089,122.0961392,G,L,915065485,11.5888861,122.0954258,97.04723798,17907,18816
100,60607000,PANAY,6,ANTIQUE,TOBIAS FORNIER,,10.5163604,121.9446158,G,L,535276714,10.5168197,121.9442947,61.97336780631234,33046,33816
104,60608000,PANAY,6,ANTIQUE,HAMTIC,,10.7010876,121.9817698,G,L,1051223918,10.7014316,121.9817859,38.29153545212126,48592,52685
149,60618000,PANAY,6,ANTIQUE,VALDERRAMA,,11.0038166,122.1299297,G,L,1800121669,11.0039955,122.1296042,40.71855577240943,19124,19971
118,60612000,PANAY,6,ANTIQUE,PATNONGON,,10.9138658,121.9957602,G,L,1798998690,10.9131543,121.9959953,83.17533603855964,37176,38329
79,60603000,PANAY,6,ANTIQUE,BELISON,,10.8382165,121.9592205,G,L,1800119825,10.838311,121.9598017,64.33766793,13539,14129
108,60609000,PANAY,6,ANTIQUE,LAUA-AN,,11.1428795,122.0417333,G,L,1780445915,11.1426071,122.0418402,32.45726716766898,26072,26580
143,60617000,PANAY,6,ANTIQUE,TIBIAO,,11.2893698,122.0344645,G,L,7576343264,11.289303,122.0341308,37.13822483101323,26748,28703
84,60604000,PANAY,6,ANTIQUE,BUGASONG,,11.0447,122.0650309,G,L,7174365551,11.0449735,122.0648298,37.504106920235735,33642,34676
93,60606000,PANAY,6,ANTIQUE,CULASI,,11.426597,122.0551175,G,LS*,4906324173,11.4265424,122.0548754,27.076203215764437,41228,44494
110,60610000,PANAY,6,ANTIQUE,LIBERTAD,,11.7698901,121.9197249,G,L,2797272209,11.7696547,121.9194925,36.402711642381874,16429,17507
128,60614000,PANAY,6,ANTIQUE,SAN REMIGIO,,10.8308929,122.0886129,G,L,1800119519,10.8303835,122.088712,57.66753195149409,31935,34045
76,60602000,PANAY,6,ANTIQUE,BARBAZA,,11.1950735,122.038461,C,L,1780445978,11.1955297,122.038487,50.80641297395843,22704,23359
196,61914000,PANAY,6,CAPIZ,ROXAS,Y,11.5836125,122.7525884,G,L,2306113918,11.5839619,122.7522759,51.65475495369006,167003,179292
186,61910000,PANAY,6,CAPIZ,PANITAN,,11.4629175,122.768451,G,L,2396897620,11.4626758,122.7685637,29.549148927433556,40289,42565
167,61905000,PANAY,6,CAPIZ,IVISAN,,11.521027,122.6927,G,L,1406589361,11.5212557,122.6931131,51.69646766213704,29055,31278
171,61906000,PANAY,6,CAPIZ,JAMINDAN,,11.4083929,122.5097895,G,L,1830345761,11.4078797,122.5098116,57.11613436426541,36677,38670
180,61908000,PANAY,6,CAPIZ,MAMBUSAO,,11.4295204,122.597546,G,L,569931233,11.4291901,122.5973357,43.292965186156636,39644,40690
160,61903000,PANAY,6,CAPIZ,DUMALAG,,11.3061086,122.623314,G,L,2551653489,11.305985,122.6229666,40.29576372640845,29466,30098
165,61904000,PANAY,6,CAPIZ,DUMARAO,,11.2621947,122.6871398,G,L,2538440021,11.2623185,122.6868424,35.23316640388726,46157,49506
157,61902000,PANAY,6,CAPIZ,DAO,,11.3943499,122.6861554,G,L,2531091417,11.3940062,122.6863292,42.65562719792091,32496,33842
207,61916000,PANAY,6,CAPIZ,SIGMA,,11.4226166,122.665261,G,L,569931263,11.4222359,122.6651026,45.717136434114394,30134,31688
153,61901000,PANAY,6,CAPIZ,CUARTERO,,11.3408245,122.6695418,G,L,8337358449,11.3407529,122.6697524,24.301623436637428,27408,27993
205,61915000,PANAY,6,CAPIZ,SAPI-AN,,11.4937664,122.6048496,G,L,7144682288,11.4937354,122.6054538,65.92696555131798,25821,26697
214,61917000,PANAY,6,CAPIZ,TAPAZ,,11.2606348,122.5376844,G,L,2536029599,11.2607354,122.5380684,43.34520894,51313,54423
195,61912000,PANAY,6,CAPIZ,PONTEVEDRA,,11.4818541,122.8323922,G,L,8411178509,11.481609,122.8321446,38.35031860389051,46428,49725
192,61911000,PANAY,6,CAPIZ,PILAR,,11.5149769,123.0515528,M,L,1744171409,11.514743,123.0514415,28.696790466085197,45287,47100
182,61909000,PANAY,6,CAPIZ,PANAY,,11.5556221,122.7932185,G,L,1827135100,11.5555748,122.792904,34.663362527824425,46114,48890
177,61907000,PANAY,6,CAPIZ,MA-AYON,,11.3873584,122.7808428,G,L,2529696506,11.3871679,122.7805574,37.63722305,38416,41226
202,61913000,PANAY,6,CAPIZ,PRESIDENT ROXAS,,11.4308665,122.9297054,G,L,2532647656,11.4306629,122.9292667,52.902633789126334,29676,31269
223,67902000,GUIMARAS,6,GUIMARAS,JORDAN,Y,10.661309,122.5906898,G,LS*,3658518429,10.6614616,122.5906595,17.288395268951103,36096,39566
235,67903000,GUIMARAS,6,GUIMARAS,NUEVA VALENCIA,,10.5259199,122.5397819,G,L,1907884395,10.5257376,122.5398881,23.36032422,39810,42771
220,67901000,GUIMARAS,6,GUIMARAS,BUENAVISTA,,10.6976482,122.6478535,G,LS*,1779335004,10.6974579,122.6477817,22.56786224112978,50437,52899
237,67904000,GUIMARAS,6,GUIMARAS,SAN LORENZO,,10.5923943,122.6903584,G,LS*,1907868438,10.5921546,122.6900428,43.59271432709009,26112,29444
244,67905000,GUIMARAS,6,GUIMARAS,SIBUNAG,,10.5208304,122.633155,G,L,1907833974,10.52089,122.6336762,57.36466822480185,22158,23162
331,63022000,ILOILO,6,ILOILO,ILOILO,Y,10.6932388,122.5730842,G,LS*,10869966018,10.6930744,122.5732582,26.37480781945056,447992,457626
245,63001000,ILOILO,6,ILOILO,AJUY,,11.171313,123.0200368,G,LS*,7262893193,11.1715845,123.0203036,41.934331679582996,52268,53462
291,63014000,ILOILO,6,ILOILO,CARLES,,11.573638,123.1331295,G,L,8524303154,11.573456,123.1332578,24.594564250275496,68160,72637
350,63028000,ILOILO,6,ILOILO,LEON,,10.7806448,122.3872447,G,L,2556605714,10.7808909,122.3870472,34.84625630045387,49875,51990
310,63020000,ILOILO,6,ILOILO,GUIMBAL,,10.6607608,122.3234457,G,L,1983926123,10.6609306,122.3238094,44.000494145197585,33820,35022
307,63019000,ILOILO,6,ILOILO,ESTANCIA,,11.4569661,123.1509635,G,L,7103400263,11.4568701,123.1511539,23.33450856960807,48546,53200
266,63007000,ILOILO,6,ILOILO,BAROTAC NUEVO,,10.8936436,122.7040994,G,L,2536771386,10.8939406,122.7040678,33.204700664270845,54146,58176
296,63015000,ILOILO,6,ILOILO,CONCEPCION,,11.2151354,123.1082252,G,L,2537963986,11.2155432,123.108067,48.51742492843614,43159,44633
397,63044000,ILOILO,6,ILOILO,SARA,,11.2572282,123.0140394,G,L,2536156690,11.2573902,123.0145627,59.84434022,52631,54637
285,63013000,ILOILO,6,ILOILO,CALINOG,,11.1224809,122.5366813,G,L,8374653905,11.1226269,122.5368945,28.36645663838956,60413,62853
253,63002000,ILOILO,6,ILOILO,ALIMODIAN,,10.8159289,122.4318928,G,L,1815529564,10.8158341,122.4316621,27.31313353,38408,39722
401,63045000,ILOILO,6,ILOILO,TIGBAUAN,,10.6740376,122.3766607,G,L,1947330353,10.6741276,122.3769198,30.028780400311128,62706,65245
280,63012000,ILOILO,6,ILOILO,CABATUAN,,10.8797259,122.480945,G,L,1813493249,10.8793886,122.4807588,42.662786933731155,58442,61110
406,63047000,ILOILO,6,ILOILO,ZARRAGA,,10.8226681,122.6089561,G,L,1469647992,10.8221736,122.6083174,88.82292714409299,25605,27305
375,63038000,ILOILO,6,ILOILO,SAN DIONISIO,,11.2711464,123.094908,G,L,1744254037,11.2715553,123.0949529,45.73055034074444,38775,39048
388,63042000,ILOILO,6,ILOILO,SAN RAFAEL,,11.1763389,122.8282589,G,L,2745672519,11.1763182,122.828741,52.640851886308475,16532,17795
367,63036000,ILOILO,6,ILOILO,PAVIA,,10.7750246,122.5421932,G,L,941532594,10.7747572,122.5425705,50.820244767804674,55603,70388
361,63034000,ILOILO,6,ILOILO,OTON,,10.692095,122.4778095,G,L,1140668209,10.6928161,122.4776381,82.34082869488802,89115,98509
402,63046000,ILOILO,6,ILOILO,TUBUNGAN,,10.7653833,122.3181403,G,L,2482057320,10.7651249,122.3178758,40.74810081604837,22449,23021
355,63030000,ILOILO,6,ILOILO,MIAGAO,,10.640751,122.2350883,G,L,1967747839,10.6402632,122.2350879,54.24097775235147,67565,68115
343,63026000,ILOILO,6,ILOILO,LEGANES,,10.7851504,122.5901645,G,L,2334478252,10.7848892,122.5903636,36.28406462379504,32480,34725
384,63041000,ILOILO,6,ILOILO,SAN MIGUEL,,10.7807502,122.4648665,G,L,1813702255,10.7805656,122.4647045,27.101265025667374,27686,30115
338,63023000,ILOILO,6,ILOILO,JANIUAY,,10.9493659,122.5009167,G,L,1813488707,10.949143,122.5005509,47.001017010721945,63905,66786
392,63043000,ILOILO,6,ILOILO,SANTA BARBARA,,10.8274075,122.531223,G,L,1813539171,10.8268231,122.5309712,70.56196071206467,60215,67630
372,63037000,ILOILO,6,ILOILO,POTOTAN,,10.9429562,122.6377791,G,L,8410864462,10.9430176,122.637523,28.78076978673749,75070,78298
316,63021000,ILOILO,6,ILOILO,IGBARAS,,10.7162207,122.2654107,G,L,2791435733,10.7161248,122.2656637,29.627321114918267,32004,32197
377,63040000,ILOILO,6,ILOILO,SAN JOAQUIN,,10.5865825,122.1420854,G,L,1814565667,10.5869753,122.1421286,43.931920365029306,51892,52617
257,63003000,ILOILO,6,ILOILO,ANILAO,,10.9778999,122.7507484,G,L,8374632911,10.9777097,122.7507331,21.21514745694405,28684,30520
259,63005000,ILOILO,6,ILOILO,BALASAN,,11.4722756,123.0885458,G,L,1744154190,11.4721071,123.0890446,57.49458434140208,33088,35064
272,63008000,ILOILO,6,ILOILO,BAROTAC VIEJO,,11.0429467,122.8511596,G,L,2531528100,11.0424136,122.8512013,59.45253788347304,45808,48614
276,63010000,ILOILO,6,ILOILO,BINGAWAN,,11.2329704,122.5670546,G,L,6336546975,11.2334872,122.5674335,70.78153335,15199,16164
263,63006000,ILOILO,6,ILOILO,BANATE,,11.0004702,122.8185868,G,L,2537692869,11.0009805,122.8187512,59.512673561247325,32532,33376
299,63016000,ILOILO,6,ILOILO,DINGLE,,10.9991537,122.6712531,G,L,1823550605,10.9992429,122.6715373,32.56820880816463,45335,45965
358,63032000,ILOILO,6,ILOILO,NEW LUCENA,,10.8791991,122.5976157,G,L,8378130729,10.8795573,122.5979515,54.13863511484556,23240,24314
340,63025000,ILOILO,6,ILOILO,LAMBUNAO,,11.0550812,122.4758099,G,L,2445261225,11.0551858,122.4755496,30.695864462099387,73640,81236
410,63039000,ILOILO,6,ILOILO,SAN ENRIQUE,,11.07164,122.6560342,G,L,1340673537,11.0719715,122.65604,36.86660256230133,33911,36911
351,63029000,ILOILO,6,ILOILO,MAASIN,,10.8916155,122.4350309,M,LS*,1812517452,10.8913571,122.4353748,47.28281062404455,36922,38461
302,63018000,ILOILO,6,ILOILO,DUMANGAS,,10.8217407,122.7121353,Z,LS*,1795289196,10.8222345,122.7117392,69.90294416388046,69108,73899
273,63009000,ILOILO,6,ILOILO,BATAD,,11.418226,123.1101912,G,L,1744167538,11.4179065,123.1105533,53.101689395624085,21298,22157
300,63017000,ILOILO,6,ILOILO,DUEÃ‘AS,,11.0653067,122.6181883,Z,L,1363487272,11.0657961,122.6178338,66.76828808234895,34242,34597
258,63004000,ILOILO,6,ILOILO,BADIANGAN,,11.001576,122.5165325,G,L,6041455553,11.0026598,122.5165457,120.52184038670381,27005,27056
364,63035000,ILOILO,6,ILOILO,PASSI,,11.1174593,122.6462013,G,L,1131994347,11.1176442,122.6476936,164.11534052855188,80544,88873
345,63027000,ILOILO,6,ILOILO,LEMERY,,11.2260249,122.9297215,E,L,2541897215,11.2259161,122.9302255,56.285611689104535,30851,31414
357,63031000,ILOILO,6,ILOILO,MINA,,10.9305946,122.5738299,G,L,1813611882,10.9311608,122.5735563,69.68549913683466,23546,24042
854,71232000,BOHOL,7,BOHOL,MARIBOJOC,,9.7423249,123.8439631,M,L,6212341920,9.7420949,123.8437003,38.51690264305068,20688,22178
884,71247000,BOHOL,7,BOHOL,VALENCIA,,9.608012,124.2077941,G,L,3459223730,9.6079258,124.2073632,48.204420380842684,27126,28392
832,71224000,BOHOL,7,BOHOL,INABANGA,,10.0308193,124.0653419,G,L,5648574769,10.0309355,124.0659664,69.58988901081099,45880,48534
846,71228000,BOHOL,7,BOHOL,LOAY,,9.5997873,124.0097022,G,L,3644091001,9.599838,124.0100241,35.73989813714756,16691,17855
836,71225000,BOHOL,7,BOHOL,JAGNA,,9.6515655,124.370631,G,LS*,2537809818,9.6512942,124.3707899,34.834989320706065,33892,35832
871,71242000,BOHOL,7,BOHOL,TAGBILARAN,Y,9.6540035,123.8660431,G,LS*,5855317798,9.6535553,123.865673,64.26319145786702,105051,104976
860,71233000,BOHOL,7,BOHOL,PANGLAO,,9.580174,123.7525535,G,L,678328230,9.5802309,123.7534708,100.77553545721268,33553,39839
813,71214000,BOHOL,7,BOHOL,CLARIN,,9.9627323,124.0238804,G,L,2542710227,9.9627355,124.0236966,20.132610548540864,20301,21158
841,71226000,BOHOL,7,BOHOL,GETAFE,,10.1523026,124.1575027,M,LS*,3643781047,10.1520076,124.1577165,40.29426208,30955,33422
787,71201000,BOHOL,7,BOHOL,ALBURQUERQUE,,9.6100801,123.9570236,G,L,3643563601,9.61041,123.9573332,49.97779227246034,10540,11246
797,71206000,BOHOL,7,BOHOL,BALILIHAN,,9.7548655,123.9712715,G,L,678332520,9.7550302,123.9706902,66.28337137374774,17903,18694
826,71222000,BOHOL,7,BOHOL,GARCIA HERNANDEZ,,9.6144383,124.2954433,G,L,2540196805,9.614732,124.2954802,32.90760436014567,24194,24430
823,71220000,BOHOL,7,BOHOL,DIMIAO,,9.6059757,124.1624594,G,L,3643982407,9.6059785,124.1622545,22.46656839381503,14364,14889
794,71205000,BOHOL,7,BOHOL,BACLAYON,,9.6221285,123.9134753,G,L,8408250748,9.6222157,123.9132666,24.84970427397452,20591,22461
788,71202000,BOHOL,7,BOHOL,ALICIA,,9.8985206,124.4404221,G,L,3011901181,9.8981471,124.440667,49.44193719274994,23517,24374
809,71212000,BOHOL,7,BOHOL,CARMEN,,9.8209658,124.1969419,G,L,2536604358,9.821627,124.1973903,88.42616095222802,46306,49191
806,71210000,BOHOL,7,BOHOL,CALAPE,,9.8909742,123.8709676,G,L,3836784305,9.8908837,123.8706269,38.653973094934436,30863,33079
831,71223000,BOHOL,7,BOHOL,GUINDULMAN,,9.7615896,124.4877148,G,L,3089123934,9.7619544,124.4873066,60.38579855893838,32408,34104
888,71248000,BOHOL,7,BOHOL,BIEN UNIDO,,10.137158,124.3791711,M,L,1675933536,10.1368971,124.3789542,37.48727157854675,27115,26666
807,71211000,BOHOL,7,BOHOL,CANDIJAY,,9.8175723,124.4963408,G,L,3033796306,9.8175089,124.4965727,26.368392695133814,29475,30119
843,71227000,BOHOL,7,BOHOL,LILA,,9.5905203,124.0936983,M,L,3460196325,9.5904184,124.0941602,51.89525621455421,12257,12240
867,71239000,BOHOL,7,BOHOL,SEVILLA,,9.7028177,124.0456867,G,L,3644190980,9.7028385,124.0465494,94.58404256490955,10661,11376
849,71229000,BOHOL,7,BOHOL,LOBOC,,9.6373921,124.0311384,G,L,1218169405,9.6370275,124.0309988,43.33401516,15993,17418
819,71218000,BOHOL,7,BOHOL,DANAO,,9.9472407,124.2208779,G,LS*,2536605295,9.9469646,124.2213785,62.83791048331372,17890,20245
791,71203000,BOHOL,7,BOHOL,ANDA,,9.7442494,124.5758522,G,L,2153785174,9.7440521,124.5759249,23.340687483097565,16462,17778
877,71244000,BOHOL,7,BOHOL,TRINIDAD,,10.0793558,124.3429801,G,L,963881714,10.079199,124.3434814,57.58476183,31956,35119
821,71219000,BOHOL,7,BOHOL,DAUIS,,9.6252966,123.8654423,G,L,678328948,9.6254355,123.865292,22.584302601245575,45663,52492
864,71236000,BOHOL,7,BOHOL,SAGBAYAN,,9.9127992,124.092561,G,L,2542710002,9.9128589,124.0922022,39.85786533,22339,24335
882,71246000,BOHOL,7,BOHOL,UBAY,,10.0590473,124.4721365,M,LS*,7531873847,10.0588664,124.4720882,20.79869166807183,73712,81799
800,71207000,BOHOL,7,BOHOL,BATUAN,,9.7812988,124.1473532,G,L,2577749499,9.7812841,124.1468725,52.69982906192376,12767,13845
817,71216000,BOHOL,7,BOHOL,CORTES,,9.7218448,123.8783115,G,L,394744595,9.7216931,123.8785627,32.28776427348469,16954,18344
802,71208000,BOHOL,7,BOHOL,BILAR,,9.7056307,124.1037726,M,L,1564886892,9.7054799,124.1039307,24.11314800392503,17590,18512
875,71243000,BOHOL,7,BOHOL,TALIBON,,10.1504281,124.327206,G,LS*,8499943348,10.1505217,124.327109,14.86763110982678,66969,71272
879,71245000,BOHOL,7,BOHOL,TUBIGON,,9.9502841,123.9629942,C,LS*,7062747518,9.950016,123.9628188,35.46481972527082,45893,47886
862,71235000,BOHOL,7,BOHOL,PRES. CARLOS P. GARCIA,,10.1217937,124.553783,G,L,8436631134,10.121881,124.5535271,29.646282236079475,23356,23625
816,71215000,BOHOL,7,BOHOL,CORELLA,,9.6868802,123.9214253,G,L,6212274185,9.6868181,123.9218598,48.12339366,8479,9479
865,71237000,BOHOL,7,BOHOL,SAN ISIDRO,,9.8625176,123.956286,G,LS*,5212211385,9.8625004,123.9569753,75.53826929140544,8744,9909
895,71217000,BOHOL,7,BOHOL,DAGOHOY,,9.8993979,124.2820376,C,L,3213744067,9.8990299,124.2814638,75.00020144,19158,19874
853,71231000,BOHOL,7,BOHOL,MABINI,,9.864796,124.5195324,G,L,3048374433,9.8647056,124.5207354,132.17270910788648,27171,28701
869,71240000,BOHOL,7,BOHOL,SIERRA BULLONES,,9.8077405,124.2897892,C,L,3204248905,9.8072329,124.2900572,63.62436138708192,24745,26095
870,71241000,BOHOL,7,BOHOL,SIKATUNA,,9.6873984,123.9738679,G,L,7069170326,9.6873189,123.9734886,42.50431639,6726,6906
851,71230000,BOHOL,7,BOHOL,LOON,,9.80496,123.7973785,G,LS*,3643654387,9.8054224,123.7966477,95.16074155375614,43034,44224
812,71213000,BOHOL,7,BOHOL,CATIGBIAN,,9.8591298,124.0055582,G,L,2549443116,9.8588228,124.0060617,64.86866802161279,22675,23805
866,71238000,BOHOL,7,BOHOL,SAN MIGUEL,,9.98491,124.33699,M,L,2537812034,9.9851852,124.3374232,56.45330629367427,24135,25356
861,71234000,BOHOL,7,BOHOL,PILAR,,9.83614,124.33434,G,L,2539257541,9.8362232,124.3345882,28.723581782387765,27256,28693
793,71204000,BOHOL,7,BOHOL,ANTEQUERA,,9.7811719,123.8980579,E,L,5200461210,9.7815538,123.8979922,43.07134167966354,14425,14990
852,71209000,BOHOL,7,BOHOL,BUENAVISTA,,10.080686,124.111763,G,L,6189006672,10.0809106,124.1122486,58.73667733858359,27261,29711
825,71221000,BOHOL,7,BOHOL,DUERO,,9.7087927,124.4055855,G,L,6648587240,9.709034,124.405576,26.851568216533792,17876,18861
762,72246000,CEBU,7,CEBU,SIBONGA,,10.0171798,123.621136,G,L,3404884503,10.0175963,123.6209345,51.30010960337978,48186,53424
659,72217000,CEBU,7,CEBU,CEBU,Y,10.2929421,123.9016387,G,LS*,2179392907,10.2931073,123.9017449,21.735549131784115,922611,964169
759,72245000,CEBU,7,CEBU,SANTANDER,,9.4172576,123.335073,G,LS*,8340739370,9.4169059,123.3348117,48.48700733079869,17857,18527
746,72239000,CEBU,7,CEBU,RONDA,,9.999884,123.409676,G,L,1623275133,9.9996868,123.4097118,22.27535700489558,20360,21005
684,72211000,CEBU,7,CEBU,BOGO,,11.054889,123.982537,G,LS*,322740815,11.0559455,123.9817884,143.0915876876794,78120,88867
749,72241000,CEBU,7,CEBU,SAN FERNANDO,,10.1626204,123.7072778,G,L,2657156881,10.1631785,123.7073907,63.27627116271526,66280,72224
676,72205000,CEBU,7,CEBU,ARGAO,,9.881208,123.6087039,G,LS*,5830970220,9.8811745,123.6085594,16.261727379986805,72366,78187
720,72223000,CEBU,7,CEBU,DANAO,,10.5202871,124.0260744,G,LS*,367825277,10.5200818,124.0261006,23.007346813279497,136471,156321
663,72230000,CEBU,7,CEBU,MANDAUE,,10.3275143,123.9432263,G,L,8318628544,10.3275971,123.943478,29.03290332204397,362654,364116
666,72226000,CEBU,7,CEBU,LAPU-LAPU,,10.316463,123.965207,G,LS*,1157168202,10.3161588,123.9653088,35.611693738788055,408112,497604
711,72221000,CEBU,7,CEBU,DAANBANTAYAN,,11.2502797,123.9982527,G,LS*,6012446346,11.2500584,123.9984329,31.491930841049257,84430,93502
733,72232000,CEBU,7,CEBU,MINGLANILLA,,10.2460586,123.7954849,G,L,2151427109,10.2459489,123.7957577,32.24644379962489,132135,151002
692,72214000,CEBU,7,CEBU,CARCAR,,10.105784,123.6412525,G,L,2653330250,10.1056497,123.6409825,33.11524062640968,119664,136453
772,72249000,CEBU,7,CEBU,TABUELAN,,10.8223888,123.872357,G,LS*,9559455841,10.8217193,123.8720789,80.40283670159788,25630,28907
723,72224000,CEBU,7,CEBU,DUMANJUG,,10.0576212,123.4366751,M,LS*,1694191716,10.0574741,123.4364195,32.41432594044499,51210,57823
768,72248000,CEBU,7,CEBU,TABOGON,,10.9399277,124.0282631,G,L,1666800464,10.9397505,124.0282289,20.054412521806427,39013,41432
705,72219000,CEBU,7,CEBU,CONSOLACION,,10.3771691,123.9570343,G,L,1135115976,10.377509,123.9571802,41.02603173381298,131528,148012
704,72218000,CEBU,7,CEBU,COMPOSTELA,,10.4539247,124.0125239,G,L,322734942,10.454105,124.0130001,55.79830194487635,47898,55874
781,72252000,CEBU,7,CEBU,TUBURAN,,10.7279112,123.8242435,G,L,6227120435,10.7276957,123.8244548,33.273337270989764,63866,68167
913,72210000,CEBU,7,CEBU,BARILI,,10.1121689,123.5123992,M,LS*,1692756143,10.1127505,123.512365,64.77933176395928,73862,80715
778,72251000,CEBU,7,CEBU,TOLEDO,,10.3745097,123.6341393,G,LS*,2303379642,10.3742225,123.6339402,38.65355295217025,170335,207314
897,72228000,CEBU,7,CEBU,MADRIDEJOS,,11.2956719,123.7292933,M,L,1696225272,11.2954857,123.7298322,62.30317765124287,36429,42039
670,72201000,CEBU,7,CEBU,ALCANTARA,,9.9704145,123.4021282,G,L,3641980808,9.9704507,123.4028054,74.27320563467674,15160,16910
889,72238000,CEBU,7,CEBU,PORO,,10.6279209,124.4099522,M,LS*,9238824867,10.6277156,124.4101578,32.03144787546617,25212,26232
696,72215000,CEBU,7,CEBU,CARMEN,,10.5874684,124.017266,G,L,1675371812,10.5874429,124.0166347,69.06061828207368,51325,57897
708,72220000,CEBU,7,CEBU,CORDOVA,,10.2521873,123.9498299,G,L,1150425781,10.2524596,123.9494057,55.41851608116187,59712,70595
736,72234000,CEBU,7,CEBU,NAGA,,10.2075522,123.7591195,G,L,2160523292,10.2075376,123.7586151,55.22294063007723,115750,133184
754,72243000,CEBU,7,CEBU,SAN REMIGIO,,11.0839326,123.9373147,G,LS*,1645214556,11.08338,123.9370045,70.15296182849559,57557,65744
738,72235000,CEBU,7,CEBU,OSLOB,,9.5203645,123.4337246,G,L,5254069558,9.5201747,123.4339862,35.614814515520735,27893,29264
725,72227000,CEBU,7,CEBU,LILOAN,,10.3997524,123.9994717,G,L,1628136826,10.3999622,123.9996198,28.40047632426426,118753,153197
765,72247000,CEBU,7,CEBU,SOGOD,,10.7470642,124.0043378,G,L,1671516533,10.7473138,124.0041696,33.28572713360465,35108,39447
730,72231000,CEBU,7,CEBU,MEDELLIN,,11.1284866,123.9612401,G,L,1655547075,11.1278701,123.9610952,70.35109320638523,55332,59605
699,72216000,CEBU,7,CEBU,CATMON,,10.7233046,124.0134144,G,L,1672952708,10.7230785,124.0134022,25.176515237275865,30471,33745
674,72204000,CEBU,7,CEBU,ALOGUINSAN,,10.2228783,123.5490435,M,L,1686628811,10.22254,123.5489239,39.82903274274998,32100,34466
680,72207000,CEBU,7,CEBU,BADIAN,,9.8702153,123.398872,G,L,1945553635,9.8702813,123.3990236,18.156914226502497,37912,43735
743,72237000,CEBU,7,CEBU,PINAMUNGAHAN,,10.2709581,123.5846525,M,L,1407980929,10.2707094,123.5849945,46.52916167921583,65955,75131
758,72244000,CEBU,7,CEBU,SANTA FE,,11.1548769,123.792336,G,LS*,1637413854,11.1540851,123.7927104,97.05722704039741,28603,34471
690,72213000,CEBU,7,CEBU,BORBON,,10.8392702,124.0314174,M,L,827462112,10.8390756,124.0307512,75.90612391015496,35526,38187
776,72250000,CEBU,7,CEBU,TALISAY,,10.2533539,123.8294148,G,L,2134482856,10.2528253,123.82893,79.17546975910486,227645,263048
906,72202000,CEBU,7,CEBU,ALCOY,,9.708761,123.5077214,G,L,6344265330,9.708509,123.5074208,43.25111629066151,16979,19186
753,72242000,CEBU,7,CEBU,SAN FRANCISCO,,10.6469009,124.3806624,C,LS*,1687140452,10.6471983,124.3808838,40.97526763875896,55180,59236
682,72208000,CEBU,7,CEBU,BALAMBAN,,10.5052815,123.713361,G,L,932646756,10.5058788,123.7136379,72.99107202105023,87177,95136
688,72212000,CEBU,7,CEBU,BOLJOON,,9.6282134,123.4797084,M,L,5250118397,9.6284401,123.4798808,31.50633563680541,16344,17525
728,72229000,CEBU,7,CEBU,MALABUYOC,,9.6564098,123.3255887,G,L,1933285548,9.6537345,123.3249228,306.30520962439164,19373,19770
741,72236000,CEBU,7,CEBU,PILAR,,10.8064646,124.5651416,G,LS*,2527570976,10.8067593,124.5653768,41.63842732569528,11308,12506
715,72222000,CEBU,7,CEBU,DALAGUETE,,9.7619076,123.5329449,G,L,6230322172,9.7620279,123.5332994,41.08646079,67497,74596
894,72240000,CEBU,7,CEBU,SAMBOAN,,9.5283166,123.3063573,G,LS*,6336981024,9.5280924,123.3065941,35.99757236603619,20884,20373
892,72206000,CEBU,7,CEBU,ASTURIAS,,10.5672612,123.7176847,C,L,2270235882,10.567328,123.7174321,28.59315105608098,47857,55397
909,72233000,CEBU,7,CEBU,MOALBOAL,,9.936803,123.391993,G,L,8370291390,9.9368739,123.3921011,14.224475334259402,31130,36930
724,72225000,CEBU,7,CEBU,GINATILAN,,9.5694254,123.3122957,C,L,6276076450,9.5697029,123.3123109,30.901611881703424,15919,16906
784,72253000,CEBU,7,CEBU,TUDELA,,10.6367256,124.4711065,G,LS*,1142833139,10.6369436,124.4707912,42.12972426625439,11296,11304
673,72203000,CEBU,7,CEBU,ALEGRIA,,9.7293925,123.3403409,G,L,6261057942,9.7304579,123.3402617,118.78479896858305,23300,25620
1214,72209000,CEBU,7,CEBU,BANTAYAN,,11.16683,123.71972,C,LS*,1696219563,11.1663462,123.7199818,60.907211571495004,79084,86247
931,87808000,REG8,8,BILIRAN,NAVAL,Y,11.5648641,124.4013047,G,LS*,8301782000,11.5649976,124.4009572,40.662312017175914,54692,58187
925,87807000,REG8,8,BILIRAN,MARIPIPI,,11.7767959,124.3486878,G,L,3225563113,11.7764696,124.3484826,42.60741559937973,7159,6373
921,87805000,REG8,8,BILIRAN,CULABA,,11.6559824,124.5375261,G,L,610749750,11.655943,124.5378359,34.02112500196702,12325,12972
916,87801000,REG8,8,BILIRAN,ALMERIA,,11.620052,124.3792945,C,L,603555467,11.61963,124.378933,61.25472653661523,16951,17954
918,87804000,REG8,8,BILIRAN,CAIBIRAN,,11.5707633,124.5794678,C,L,952038351,11.5705859,124.5792091,34.39937415,22524,24167
923,87806000,REG8,8,BILIRAN,KAWAYAN,,11.699265,124.4053066,E,L,1722914331,11.6991849,124.4052596,10.27227219843644,20291,20455
928,87802000,REG8,8,BILIRAN,BILIRAN,,11.4656726,124.47417,G,L,610748151,11.4657838,124.4749729,88.36624079730032,16882,17662
919,87803000,REG8,8,BILIRAN,CABUGCAYAN,,11.4736915,124.575145,G,L,610748959,11.4735479,124.575118,16.23642942474802,20788,21542
959,82609000,SAMAR,8,EASTERN SAMAR,GUIUAN,,11.0341697,125.7222551,G,LS*,8456602590,11.0338615,125.722294,34.53229768537163,52991,53361
977,82617000,SAMAR,8,EASTERN SAMAR,ORAS,,12.1407856,125.4401565,G,L,3221229938,12.1405783,125.4402968,27.639689304208186,36540,37451
971,82615000,SAMAR,8,EASTERN SAMAR,MAYDOLONG,,11.50116,125.5018634,G,L,2528545679,11.5010918,125.5022718,45.14177885504035,14743,15314
945,82604000,SAMAR,8,EASTERN SAMAR,BORONGAN,Y,11.608132,125.4323244,M,L,1266690178,11.6085265,125.4323539,43.983981622231454,69297,71961
938,82602000,SAMAR,8,EASTERN SAMAR,BALANGIGA,,11.1091846,125.386464,G,L,1783467321,11.1089592,125.3861997,38.20749896869559,14085,14341
950,82605000,SAMAR,8,EASTERN SAMAR,CAN-AVID,,11.9991247,125.44985,G,L,2810294117,11.9989646,125.4502857,50.622683562174785,21015,21682
978,82618000,SAMAR,8,EASTERN SAMAR,QUINAPONDAN,,11.1562558,125.5202392,M,L,2653398893,11.1565308,125.5202794,30.89153419344344,14779,14507
935,82601000,SAMAR,8,EASTERN SAMAR,ARTECHE,,12.2693244,125.3712988,G,L,3221487522,12.2691366,125.3714407,25.957598492283157,16026,16360
954,82608000,SAMAR,8,EASTERN SAMAR,GIPORLOS,,11.1204754,125.4502013,G,L,1912374568,11.1207635,125.4502796,33.15486497961856,13308,13117
964,82612000,SAMAR,8,EASTERN SAMAR,LAWAAN,,11.140732,125.301033,C,L,3624484306,11.1404831,125.3009321,29.785328694604804,12742,13003
982,82621000,SAMAR,8,EASTERN SAMAR,SAN POLICARPO,,12.1793006,125.5077159,C,L,8498663120,12.1795678,125.5076688,30.14914881803789,14687,15365
981,82619000,SAMAR,8,EASTERN SAMAR,SALCEDO,,11.1492717,125.6629059,C,L,2536326613,11.1490954,125.6636057,78.82242916355821,22532,22136
951,82606000,SAMAR,8,EASTERN SAMAR,DOLORES,,12.0381244,125.4822564,E,L,2810296019,12.0381786,125.4824149,18.260084057046164,42866,44626
985,82623000,SAMAR,8,EASTERN SAMAR,TAFT,,11.9038553,125.4174972,E,L,3221486180,11.903933,125.4178064,34.73385865616382,18915,18786
1203,82614000,SAMAR,8,EASTERN SAMAR,MASLOG,,12.1589122,125.2469301,E,L,3229087534,12.15912,125.2469397,23.12988947322641,5407,5463
972,82616000,SAMAR,8,EASTERN SAMAR,MERCEDES,,11.0987408,125.7098848,E,L,2535988920,11.0989323,125.709912,21.49969851115814,6070,6112
942,82603000,SAMAR,8,EASTERN SAMAR,BALANGKAYAN,,11.4463825,125.4928404,E,L,2525794841,11.4464918,125.4926443,24.585736278634975,10125,10185
984,82622000,SAMAR,8,EASTERN SAMAR,SULAT,,11.813126,125.4521298,E,L,2810321304,11.812971,125.4518191,37.955450461025464,15377,15758
1212,82620000,SAMAR,8,EASTERN SAMAR,SAN JULIAN,,11.7669209,125.4184019,E,L,3226030899,11.766692,125.4182387,31.03952690657338,14498,14800
966,82613000,SAMAR,8,EASTERN SAMAR,LLORENTE,,11.4109169,125.5417157,Z,L,2536074532,11.4115897,125.542338,100.98313980887644,20149,21459
962,82610000,SAMAR,8,EASTERN SAMAR,HERNANI,,11.3240141,125.6186628,E,L,2538222897,11.3241713,125.6185721,20.08330421951042,8573,8531
952,82607000,SAMAR,8,EASTERN SAMAR,GENERAL MACARTHUR,,11.2459848,125.5379887,G,L,3583083870,11.2458995,125.5383658,42.20611673488204,14550,14411
963,82611000,SAMAR,8,EASTERN SAMAR,JIPAPAD,,12.2861608,125.2349353,G,L,2529594038,12.2866367,125.2348765,53.301972210460946,7885,8439
1056,83748000,REG8,8,LEYTE,TANUAN,,11.1106637,125.016405,G,L,1107168427,11.1104199,125.0165399,30.847503477025402,55021,57455
1035,83738000,REG8,8,LEYTE,ORMOC,,11.0128973,124.6046054,G,LS*,8656596080,11.0124776,124.6045037,47.970536665324936,215031,230998
994,83706000,REG8,8,LEYTE,BARUGO,,11.3255527,124.7348562,G,L,1671627550,11.3254457,124.7342408,68.14367249894347,32745,34497
1042,83740000,REG8,8,LEYTE,PALOMPON,,11.0479775,124.3822664,G,LS*,1772788826,11.0480029,124.3825243,28.287090573822926,58108,58313
1062,83749000,REG8,8,LEYTE,TOLOSA,,11.0631455,125.0381014,G,L,2791902967,11.0629306,125.0377562,44.61089338538043,20978,20708
1007,83719000,REG8,8,LEYTE,HILONGOS,,10.3737709,124.7487473,G,LS*,1674037982,10.3733288,124.7486802,49.704180519785346,63431,64514
1015,83722000,REG8,8,LEYTE,ISABEL,,10.9264336,124.4347465,G,LS*,1119628859,10.9264408,124.4352543,55.447010695889304,46915,46781
1209,83710000,REG8,8,LEYTE,BURAUEN,,10.9745333,124.8922517,G,L,3392169117,10.9747532,124.8920175,35.37642488,52732,52511
1011,83721000,REG8,8,LEYTE,INOPACAN,,10.4996325,124.7405022,C,L,1674001342,10.4992989,124.7403591,40.25915834536941,20550,21389
1197,83735000,REG8,8,LEYTE,MAYORGA,,10.9029411,125.0065237,M,L,1107282634,10.9029784,125.0060009,57.23390897034338,17161,18071
988,83703000,REG8,8,LEYTE,ALBUERA,,10.9170552,124.694497,G,L,813940031,10.9166425,124.6945196,45.95650169190342,46332,47151
1038,83739000,REG8,8,LEYTE,PALO,,11.1600847,124.9901971,G,L,1107167918,11.1597217,124.9902637,41.01250829,70052,76213
1054,83747000,REG8,8,LEYTE,TACLOBAN,Y,11.2435671,125.0079614,G,LS*,1161368197,11.2434751,125.0080766,16.201895979868585,242089,251881
1029,83734000,REG8,8,LEYTE,MATALOM,,10.282127,124.78535,G,L,9546260017,10.2819524,124.7853734,19.582736882759736,33121,32586
1049,83745000,REG8,8,LEYTE,TABANGO,,11.30734,124.37062,G,L,1774513263,11.3072937,124.3706156,5.170637857165172,34195,33868
1021,83726000,REG8,8,LEYTE,KANANGA,,11.1837487,124.5620227,G,L,818577445,11.1838961,124.5614546,64.10115779135988,56575,59696
1018,83725000,REG8,8,LEYTE,JULITA,,10.9730865,124.9621975,G,L,1107282635,10.9729213,124.9618215,44.968029624126274,15114,15598
1005,83718000,REG8,8,LEYTE,DULAG,,10.9533634,125.0317848,M,L,1774461490,10.9530864,125.0319276,34.521485724738895,47300,48992
1051,83746000,REG8,8,LEYTE,TABONTABON,,11.0409091,124.9655503,M,L,1107167509,11.0413008,124.965287,52.18036413004022,11204,11902
1030,83736000,REG8,8,LEYTE,MERIDA,,10.9077562,124.5376851,C,L,7648182820,10.9077749,124.5381496,50.75956377316949,29863,31574
1001,83715000,REG8,8,LEYTE,CARIGARA,,11.3022896,124.6893579,M,L,5127562273,11.3026091,124.689147,42.320001751805464,51345,54656
999,83708000,REG8,8,LEYTE,BAYBAY,,10.6765917,124.7974133,G,LS*,1673983551,10.6762087,124.7973444,43.248064819951274,109432,111848
997,83707000,REG8,8,LEYTE,BATO,,10.3281133,124.7889054,M,LS*,393359673,10.3278387,124.7893977,61.90825182948524,38356,38505
1025,83730000,REG8,8,LEYTE,MACARTHUR,,10.8345178,124.9976939,G,L,1673486762,10.8353662,124.9972594,105.60030002587656,21211,21578
986,83701000,REG8,8,LEYTE,ABUYOG,,10.7398069,125.0168395,C,L,1673417325,10.7398943,125.0166581,22.072158166316203,59571,61216
1047,83744000,REG8,8,LEYTE,SANTA FE,,11.1856432,124.9178982,G,L,1671407416,11.1851669,124.9180456,55.34911711098095,20439,22102
1026,83731000,REG8,8,LEYTE,MAHAPLAG,,10.6054385,124.9644828,E,L,10825894747,10.6055648,124.9647542,32.819439621293725,27823,27865
1000,83713000,REG8,8,LEYTE,CALUBIAN,,11.4477046,124.425393,G,L,2607725395,11.4469383,124.4254406,85.36655702893187,31228,31646
1044,83741000,REG8,8,LEYTE,PASTRANA,,11.1365082,124.8836517,E,L,1671345158,11.1366636,124.8837403,19.799677942609463,18002,19359
1045,83742000,REG8,8,LEYTE,SAN ISIDRO,,11.4060582,124.3522278,C,L,8456208063,11.4063012,124.3523016,28.192378028855146,31641,30722
1022,83728000,REG8,8,LEYTE,LA PAZ,,10.8903302,124.957552,C,L,1671375304,10.8899538,124.9573445,47.59310428456666,19998,19174
1200,83714000,REG8,8,LEYTE,CAPOOCAN,,11.2928733,124.6434009,C,L,2542461532,11.2930643,124.6434235,21.380756317521183,33617,33721
1202,83702000,REG8,8,LEYTE,ALANGALANG,,11.2072924,124.8469242,G,L,5705197785,11.2074846,124.8472647,42.84998973678693,55235,57185
1201,83705000,REG8,8,LEYTE,BABATNGON,,11.4236629,124.8460579,E,L,1672008437,11.4234658,124.8462644,31.414901232057076,27797,28823
1064,83750000,REG8,8,LEYTE,TUNGA,,11.245798,124.7509789,E,L,1671887519,11.2455112,124.7508878,33.402569192610954,7584,7656
1023,83729000,REG8,8,LEYTE,LEYTE,,11.369604,124.4868565,C,L,1774671904,11.3697737,124.4869302,20.50899270952767,40639,40397
1027,83733000,REG8,8,LEYTE,MATAG-OB,,11.1451348,124.4724959,C,L,2352107596,11.1451437,124.4727146,23.880251238469803,18373,17522
1065,83751000,REG8,8,LEYTE,VILLABA,,11.209264,124.3924791,G,L,1773587277,11.2091992,124.3917657,78.14622094164653,41891,42859
1009,83720000,REG8,8,LEYTE,HINDANG,,10.4340254,124.7271609,C,L,1674022244,10.4345305,124.7274788,66.05321382415228,20924,20849
1016,83723000,REG8,8,LEYTE,JARO,,11.1890954,124.7824574,E,L,1671384595,11.1894058,124.7824064,34.960415453443694,43199,43758
1003,83717000,REG8,8,LEYTE,DAGAMI,,11.0649171,124.9032211,E,L,1671326700,11.0650751,124.9034223,28.12034055015707,35147,36178
1017,83724000,REG8,8,LEYTE,JAVIER (BUGHO),,10.791279,124.936502,E,L,3600012423,10.7911808,124.9363793,17.287441699344523,25379,26658
1046,83743000,REG8,8,LEYTE,SAN MIGUEL,,11.2935256,124.831295,E,L,1671494626,11.2935065,124.8315138,23.952730398459355,19420,19753
1079,84808000,REG8,8,NORTHERN SAMAR,LAOANG,,12.569939,125.0105873,G,L,2531918126,12.5698569,125.0108157,26.415842648406368,61359,60607
1077,84806000,REG8,8,NORTHERN SAMAR,CATUBIG,,12.4082712,125.0528455,G,L,8810218052,12.4083786,125.0528119,12.487357718960823,33025,32174
1069,84802000,REG8,8,NORTHERN SAMAR,BIRI,,12.6818359,124.3623,C,L,1657164264,12.6817848,124.3626227,35.46540323999019,11767,11274
1087,84811000,REG8,8,NORTHERN SAMAR,LAVEZARES,,12.5351419,124.3301082,M,L,10307737937,12.5352375,124.3302081,15.185051739399698,28770,29390
1072,84804000,REG8,8,NORTHERN SAMAR,CAPUL,,12.4225945,124.1824901,C,LS*,9262156505,12.4226116,124.1827065,23.576050732286088,12679,12323
1100,84819000,REG8,8,NORTHERN SAMAR,SAN JOSE,,12.5294392,124.4852149,M,L,8444882809,12.5295058,124.4849577,28.88377496435737,17561,17641
1086,84810000,REG8,8,NORTHERN SAMAR,LAS NAVAS,,12.3382253,125.0313342,G,L,4541382098,12.3379587,125.0313386,29.64846118702521,37947,36621
1097,84817000,REG8,8,NORTHERN SAMAR,SAN ANTONIO,,12.4137172,124.2787385,C,L,3058992196,12.4135395,124.2788428,22.775476004914896,9058,8882
1093,84814000,REG8,8,NORTHERN SAMAR,PALAPAG,,12.5450964,125.1156253,C,L,1738262574,12.5446322,125.1157591,53.620878717065324,34286,34034
1073,84805000,REG8,8,NORTHERN SAMAR,CATARMAN,Y,12.4989234,124.6377656,G,L,1137262620,12.4987481,124.6376065,26.043708717844655,94037,97879
1103,84820000,REG8,8,NORTHERN SAMAR,SAN ROQUE,,12.5397238,124.8748648,M,L,2532595613,12.5399534,124.8748056,26.326615830551784,30580,29882
1066,84801000,REG8,8,NORTHERN SAMAR,ALLEN,,12.5045377,124.2842209,P,LS*,4125216453,12.50442,124.2845964,42.812787247362806,25469,25228
1195,84822000,REG8,8,NORTHERN SAMAR,SILVINO LOBOS,,12.3251493,124.8461868,E,L,3742468910,12.3256877,124.8464663,67.12675972232269,15299,15100
1107,84824000,REG8,8,NORTHERN SAMAR,LOPE DE VEGA,,12.2997099,124.6249366,E,L,8057857646,12.299972,124.6249689,29.354733478108795,14687,14690
1099,84818000,REG8,8,NORTHERN SAMAR,SAN ISIDRO,,12.3712542,124.3379831,P,L,8317926963,12.3711708,124.3384784,54.589557829812954,26650,27867
1078,84807000,REG8,8,NORTHERN SAMAR,GAMAY,,12.3863917,125.2971035,C,L,3221225337,12.386472,125.2968375,30.23779775183884,23511,23367
1105,84821000,REG8,8,NORTHERN SAMAR,SAN VICENTE,,12.2728858,124.0979026,P,L,10292380795,12.3432929,124.0497959,9413.077351013184,7856,6928
1090,84812000,REG8,8,NORTHERN SAMAR,MAPANAS,,12.4752969,125.2542472,E,L,1630933537,12.4750855,125.2540525,31.61327836487709,14025,14234
1106,84823000,REG8,8,NORTHERN SAMAR,VICTORIA,,12.444209,124.3126202,P,L,1660562266,12.4442015,124.3126156,0.9720983159224192,14817,15361
1083,84809000,REG8,8,NORTHERN SAMAR,LAPINIG,,12.3154019,125.3063464,P,L,1737964022,12.3149829,125.3046619,188.83579118487023,13020,11844
1094,84815000,REG8,8,NORTHERN SAMAR,PAMBUJAN,,12.5634072,124.9260977,C,L,2523504647,12.5632472,124.9259697,22.572547111483676,33062,35532
1095,84816000,REG8,8,NORTHERN SAMAR,ROSARIO,,12.5232599,124.4252086,G,L,1665925962,12.523417,124.4254872,34.92462008025891,10520,10949
1091,84813000,REG8,8,NORTHERN SAMAR,MONDRAGON,,12.5165358,124.7519982,E,L,2546456499,12.5163571,124.7517181,36.32265513215668,38726,41415
1196,84803000,REG8,8,NORTHERN SAMAR,BOBON,,12.5243492,124.5632887,G,L,3226266254,12.5240701,124.5634124,33.8148134,23668,25964
1139,86023000,REG8,8,SAMAR,ZUMARRAGA,,11.6379638,124.8404091,G,L,2255284769,11.6384594,124.8407006,63.598689299142066,16295,16279
1144,86024000,REG8,8,SAMAR,TAGAPUL-AN,,12.0492204,124.1577816,P,LS*,1723113423,12.0489422,124.1581089,47.156730914198434,8473,8805
1113,86003000,REG8,8,SAMAR,CALBAYOG,,12.0664747,124.5944533,G,LS*,8292669440,12.0665672,124.5946324,22.02428467948969,183851,186960
1119,86005000,REG8,8,SAMAR,CATBALOGAN,Y,11.7753439,124.8836222,G,LS*,2627586060,11.7752885,124.8834797,16.690277542959738,103879,106440
1118,86004000,REG8,8,SAMAR,CALBIGA,,11.6251094,125.019232,G,L,3152381571,11.6248959,125.0189853,35.85449442459804,22982,23310
1109,86002000,REG8,8,SAMAR,BASEY,,11.280537,125.0690299,G,LS*,10038419442,11.2804122,125.0689721,15.241453296956541,55480,56685
1133,86016000,REG8,8,SAMAR,SANTA MARGARITA,,12.03835,124.6576166,C,L,5173661267,12.0384078,124.6577799,18.88605699133895,26348,26816
1123,86006000,REG8,8,SAMAR,DARAM,,11.6361486,124.7968233,P,LS*,668986429,11.6362793,124.7965817,30.059392385243243,42879,41608
1126,86007000,REG8,8,SAMAR,GANDARA,,12.0125283,124.8122969,M,L,2722419885,12.0126801,124.812182,21.001857644958356,34434,35242
1213,86025000,REG8,8,SAMAR,SAN JORGE,,11.9789379,124.8248792,E,L,2760575940,11.979077,124.8255444,73.99095244081794,17184,17579
1194,86013000,REG8,8,SAMAR,PINABACDAO,,11.6128506,124.98402,C,L,2526123610,11.6132476,124.984033,44.167149426287295,18252,18136
1135,86019000,REG8,8,SAMAR,TALALORA,,11.5307301,124.8347282,P,L,2531555313,11.5305947,124.8349911,32.359084649156465,8057,7856
1108,86001000,REG8,8,SAMAR,ALMAGRO,,11.9510245,124.3178451,P,LS*,1723053531,11.950616,124.3176369,50.756725045725524,8942,9273
1136,86020000,REG8,8,SAMAR,TARANGNAN,,11.902522,124.7495199,P,L,6181544181,11.9026657,124.7494582,17.331686074019636,24992,25713
1134,86018000,REG8,8,SAMAR,SANTO NINO,,11.5820149,124.9635065,E,L,2526272836,11.5813861,124.9634271,70.45238963445075,12863,12519
1138,86022000,REG8,8,SAMAR,PARANAS (WRIGHT),,11.7709929,125.019929,P,L,2999190865,11.7704629,125.0203113,72.14591973400213,30557,32374
1127,86008000,REG8,8,SAMAR,HINABANGAN,,11.7011771,125.0673723,E,L,3363577795,11.7009958,125.0672289,25.49920825457504,13673,13693
1131,86012000,REG8,8,SAMAR,MOTIONG,,11.7777777,124.9979136,P,L,2825676239,11.7777122,124.998405,53.984451703031894,15156,15276
1128,86009000,REG8,8,SAMAR,JIABONG,,11.7630918,124.9509645,E,L,1912369421,11.7629356,124.9508848,19.415098352589588,18342,19205
1129,86010000,REG8,8,SAMAR,MARABUT,,11.2305552,125.1767314,Z,L,4953817677,11.230432,125.1766237,18.045686563795673,16962,17842
1137,86021000,REG8,8,SAMAR,VILLAREAL,,11.5695283,124.9280477,P,L,1839474843,11.5683731,124.9283283,132.03949653920333,28230,27394
1149,86026000,REG8,8,SAMAR,PAGSANGHAN,,11.9681749,124.7199887,P,L,8621908492,11.9680621,124.7200323,13.409525683073978,7945,7959
1132,86015000,REG8,8,SAMAR,SAN SEBASTIAN,,11.7112678,125.0179446,E,L,2825676203,11.7111775,125.0177713,21.374231026535192,8057,8704
1192,86017000,REG8,8,SAMAR,SANTA RITA,,11.4482279,124.9406701,P,L,8830610043,11.4482128,124.9405759,10.402578230896294,41591,42384
1193,86014000,REG8,8,SAMAR,SAN JOSE DE BUAN,,12.0532967,125.0250578,E,L,5237276300,12.0532941,125.0251865,13.998293449479572,7769,7767
1130,86011000,REG8,8,SAMAR,MATUGUINAO,,12.1446,124.8856,E,L,2532584101,12.1447077,124.8855569,12.85959552227913,7288,7364
1187,86417000,REG8,8,SOUTHERN LEYTE,SOGOD,,10.3847965,124.9807048,G,L,1404221067,10.38509,124.9811081,54.87091077216038,44986,47552
1153,86402000,REG8,8,SOUTHERN LEYTE,BONTOC,,10.3561884,124.9701235,M,L,1640904155,10.3562674,124.97044,35.71700247085672,28905,29799
1163,86407000,REG8,8,SOUTHERN LEYTE,MAASIN,Y,10.131402,124.8384002,G,LS*,1886380719,10.1318093,124.8371677,142.3098723664333,85560,87446
1181,86415000,REG8,8,SOUTHERN LEYTE,SAN RICARDO,,9.9113989,125.2766007,G,L,4849497197,9.9116454,125.2774713,99.22255499223579,10494,10500
1168,86408000,REG8,8,SOUTHERN LEYTE,MACROHON,,10.0769421,124.9421293,G,L,1358474912,10.0764093,124.9419495,62.42930104180296,26244,26580
1169,86409000,REG8,8,SOUTHERN LEYTE,MALITBOG,,10.1581665,125.0026131,G,L,1404220413,10.1581808,125.0029164,33.23486820543517,22923,23256
1173,86410000,REG8,8,SOUTHERN LEYTE,PADRE BURGOS,,10.0300771,125.0170916,G,LS*,6384776052,10.0302656,125.01705,21.449503624732912,11091,11159
1179,86414000,REG8,8,SOUTHERN LEYTE,SAN JUAN,,10.2625969,125.1728153,C,L,4441575447,10.2626075,125.1729467,14.425512881734514,14858,14912
1206,86406000,REG8,8,SOUTHERN LEYTE,LILOAN,,10.1556662,125.1177603,C,L,3664203433,10.1550782,125.1181212,76.38896661051028,23981,24800
1158,86403000,REG8,8,SOUTHERN LEYTE,HINUNANGAN,,10.3943046,125.1982909,G,L,1251358237,10.394305,125.1981468,15.760323470147409,29976,29149
1207,86404000,REG8,8,SOUTHERN LEYTE,HINUNDAYAN,,10.3495287,125.2502131,C,L,7059604901,10.3494754,125.2499873,25.400464500732376,12285,12398
1160,86405000,REG8,8,SOUTHERN LEYTE,LIBAGON,,10.351286,125.0313395,C,L,1774379159,10.351382,125.0315227,22.705219187293412,15169,15244
1150,86401000,REG8,8,SOUTHERN LEYTE,ANAHAWAN,,10.2742571,125.2572888,C,L,4848510398,10.2736188,125.2571325,73.00695560707771,8211,8429
1191,86419000,REG8,8,SOUTHERN LEYTE,LIMASAWA,,9.9221206,125.0736594,E,LS*,1719531638,9.921818,125.0737963,36.83762921,6061,6191
1183,86416000,REG8,8,SOUTHERN LEYTE,SILAGO,,10.5286519,125.1629287,C,L,6105048902,10.5278837,125.1630667,86.74209982,12775,13116
1175,86411000,REG8,8,SOUTHERN LEYTE,PINTUYAN,,9.9431087,125.2492905,C,L,4849497234,9.9432065,125.2489015,43.97117447431739,9826,10202
1190,86418000,REG8,8,SOUTHERN LEYTE,TOMAS OPPUS,,10.2540719,124.9853396,C,L,1640887028,10.2532553,124.9855281,93.11497028,16608,16990
1177,86413000,REG8,8,SOUTHERN LEYTE,SAN FRANCISCO,,10.0573571,125.1575482,E,L,4849445639,10.0567831,125.1574197,65.35818520463329,13402,13436
1176,86412000,REG8,8,SOUTHERN LEYTE,SAINT BERNARD,,10.2772499,125.1387995,P,L,6102937182,10.2776684,125.138756,46.777890443191346,28395,28414
414,64501000,NEGROS,NIR,NEGROS OCCIDENTAL,BACOLOD,Y,10.667519,122.94515,G,LS*,678500988,10.6676265,122.9455178,41.93067686268662,561875,600783
538,64531000,NEGROS,NIR,NEGROS OCCIDENTAL,VICTORIAS,,10.9007761,123.0714467,G,LS*,2536012789,10.9003486,123.0709106,75.40647540310721,87933,90101
507,64523000,NEGROS,NIR,NEGROS OCCIDENTAL,SAGAY,,10.8768302,123.4084357,G,L,8417434466,10.8756616,123.40887,138.3262813287986,146264,148894
515,64524000,NEGROS,NIR,NEGROS OCCIDENTAL,SAN CARLOS,,10.4929099,123.4094829,G,LS*,3674480743,10.4926281,123.4100298,67.50844982682902,132536,132650
443,64526000,NEGROS,NIR,NEGROS OCCIDENTAL,SILAY,,10.8007838,122.9750495,G,L,391179902,10.8005771,122.9745209,62.14310662221591,126930,130478
527,64527000,NEGROS,NIR,NEGROS OCCIDENTAL,SIPALAY,,9.748434,122.4040326,G,L,2824836310,9.7481695,122.4043938,49.31415047498532,70070,72448
501,64522000,NEGROS,NIR,NEGROS OCCIDENTAL,PULUPANDAN,,10.5200181,122.8041029,G,LS*,7361587585,10.5203989,122.8041053,42.34389948145257,27735,30117
533,64529000,NEGROS,NIR,NEGROS OCCIDENTAL,TOBOSO,,10.7134297,123.5165513,M,L,2535943126,10.7134258,123.5170823,58.017017343191064,42114,43445
491,64520000,NEGROS,NIR,NEGROS OCCIDENTAL,MURCIA,,10.6058947,123.0404833,G,L,697810892,10.6060264,123.0409838,56.62868186778549,81286,88868
634,64509000,NEGROS,NIR,NEGROS OCCIDENTAL,ESCALANTE,,10.8360668,123.5579538,C,LS*,2538651002,10.8358798,123.5576226,41.72194659337747,94070,96159
483,64518000,NEGROS,NIR,NEGROS OCCIDENTAL,MANAPLA,,10.9579453,123.1237981,G,L,1696927635,10.9579693,123.1242875,53.493258576534515,54845,55083
497,64521000,NEGROS,NIR,NEGROS OCCIDENTAL,PONTEVEDRA,,10.3752464,122.8695234,M,L,2576600540,10.3753128,122.8693348,21.910013454956907,51866,54502
487,64519000,NEGROS,NIR,NEGROS OCCIDENTAL,MOISES PADILLA (MAGALLON),,10.2698127,123.0742925,G,L,7833957217,10.2700372,123.0746844,49.61643818868567,41386,43462
536,64530000,NEGROS,NIR,NEGROS OCCIDENTAL,VALLADOLID,,10.4607418,122.8236924,M,L,686514204,10.4612437,122.8241108,72.16476302391445,37833,39996
457,64506000,NEGROS,NIR,NEGROS OCCIDENTAL,CANDONI,,9.8310519,122.6429827,G,L,2813686551,9.8317195,122.6430732,74.89310350724887,21789,23751
453,64505000,NEGROS,NIR,NEGROS OCCIDENTAL,CALATRAVA,,10.5939206,123.4806042,G,L,8448314573,10.5939189,123.4810644,50.30009786513057,80624,82540
448,64502000,NEGROS,NIR,NEGROS OCCIDENTAL,BAGO,,10.5381083,122.8351307,G,L,3170949182,10.5386639,122.8350144,63.074629972889156,170981,191210
452,64504000,NEGROS,NIR,NEGROS OCCIDENTAL,CADIZ,,10.955607,123.3105844,G,LS*,2544006774,10.9556476,123.3107872,22.594972591459097,154723,158544
436,64528000,NEGROS,NIR,NEGROS OCCIDENTAL,TALISAY,,10.7477427,122.9791787,G,L,1700990698,10.7482008,122.9790604,52.55232686497132,102214,108909
467,64512000,NEGROS,NIR,NEGROS OCCIDENTAL,HINOBA-AN,,9.6017906,122.4668336,G,L,940810120,9.6026046,122.4671051,95.28174315411368,56819,60865
523,64525000,NEGROS,NIR,NEGROS OCCIDENTAL,SAN ENRIQUE,,10.420084,122.849337,G,L,3247225299,10.4197926,122.8492027,35.57555543,23907,24177
461,64508000,NEGROS,NIR,NEGROS OCCIDENTAL,ENRIQUE B. MAGALONA (SARAVIA),,10.8792939,122.9780871,G,L,3264611828,10.8797864,122.9780485,54.925544680413594,62921,64290
547,64532000,NEGROS,NIR,NEGROS OCCIDENTAL,SALVADOR BENEDICTO,,10.5775788,123.220655,G,L,333549011,10.5768218,123.2202704,94.08852963197424,25662,26922
450,64503000,NEGROS,NIR,NEGROS OCCIDENTAL,BINALBAGAN,,10.1949154,122.8618616,M,L,2571044757,10.1949897,122.8623297,51.890529776957344,67270,71407
474,64514000,NEGROS,NIR,NEGROS OCCIDENTAL,ISABELA,,10.2037272,122.9926273,M,L,2572335427,10.2041854,122.9930546,69.1560494,62146,64516
475,64515000,NEGROS,NIR,NEGROS OCCIDENTAL,KABANKALAN,,10.0040284,122.8059483,G,L,1909653588,10.0046552,122.8057166,74.17161459576029,181977,200198
478,64516000,NEGROS,NIR,NEGROS OCCIDENTAL,LA CARLOTA,,10.4268873,122.921361,G,L,2931665401,10.4273395,122.9216677,60.442335401388675,64469,66664
464,64510000,NEGROS,NIR,NEGROS OCCIDENTAL,HIMAMAYLAN,,10.0997052,122.8714585,G,L,2562401527,10.0999212,122.8712967,29.843020819447133,106880,116240
482,64517000,NEGROS,NIR,NEGROS OCCIDENTAL,LA CASTELLANA,,10.3234147,123.0185708,G,L,704191536,10.3230498,123.0191901,78.96949825860086,74855,79492
499,64511000,NEGROS,NIR,NEGROS OCCIDENTAL,HINIGARAN,,10.2738401,122.8526643,M,L,5063123685,10.2744998,122.8525677,74.11290120252391,85602,88909
642,64507000,NEGROS,NIR,NEGROS OCCIDENTAL,CAUAYAN,,9.9722901,122.6239362,M,L,2542254524,9.972206,122.6235472,43.61568848534507,102165,108480
470,64513000,NEGROS,NIR,NEGROS OCCIDENTAL,ILOG,,10.0241041,122.7693044,G,L,2822363823,10.0242497,122.7690898,28.53561133278781,57389,59855
580,74610000,NEGROS,NIR,NEGROS ORIENTAL,DUMAGUETE,Y,9.3052397,123.3094874,G,LS*,6243705492,9.3051061,123.3097868,36.05631579338646,,
563,74606000,NEGROS,NIR,NEGROS ORIENTAL,BAYAWAN (TULONG),,9.3666877,122.8053716,G,L,2882322746,9.3661987,122.8055545,57.958920435249944,,
626,74625000,NEGROS,NIR,NEGROS ORIENTAL,ZAMBOANGUITA,,9.0997982,123.2002633,G,L,2823627230,9.099608,123.1997458,60.62771668746209,,
556,74603000,NEGROS,NIR,NEGROS ORIENTAL,BACONG,,9.2451735,123.2959101,G,L,3712139147,9.2452988,123.2965026,66.50311305001249,,
596,74612000,NEGROS,NIR,NEGROS ORIENTAL,JIMALALUD,,9.9790871,123.2009062,M,L,9970032865,9.978756,123.2006628,45.45306224345841,,
592,74611000,NEGROS,NIR,NEGROS ORIENTAL,GUIHULNGAN,,10.1195016,123.2711157,M,LS*,1624762964,10.1190721,123.2713761,55.618127821534415,,
572,74608000,NEGROS,NIR,NEGROS ORIENTAL,CANLAON,,10.3862897,123.2166079,G,L,3161426891,10.3858994,123.2167809,47.344870839176856,,
608,74618000,NEGROS,NIR,NEGROS ORIENTAL,SANTA CATALINA,,9.333505,122.8626072,G,L,2880039669,9.3335461,122.8630203,45.55636964818644,,
613,74620000,NEGROS,NIR,NEGROS ORIENTAL,SIBULAN,,9.3601139,123.2851169,M,LS*,2578982229,9.3596344,123.2851417,53.387422849285464,,
619,74623000,NEGROS,NIR,NEGROS ORIENTAL,VALENCIA (LUZURRIAGA),,9.2806464,123.2439101,G,L,622293866,9.2804849,123.2443585,52.38169174706447,,
577,74609000,NEGROS,NIR,NEGROS ORIENTAL,DAUIN,,9.1904032,123.2640213,M,L,1191398539,9.190563,123.2643386,39.10006137246988,,
625,74624000,NEGROS,NIR,NEGROS ORIENTAL,VALLEHERMOSO,,10.3341718,123.3252937,M,L,2876458687,10.3339221,123.3255638,40.54528006541628,,
603,74616000,NEGROS,NIR,NEGROS ORIENTAL,PAMPLONA,,9.4732914,123.1212473,G,L,6643515519,9.4733363,123.1214243,20.044846291120713,,
551,74601000,NEGROS,NIR,NEGROS ORIENTAL,AMLAN (AYUQUITAN),,9.4641929,123.2231069,G,LS*,2823036099,9.4646795,123.2229605,56.439910070143696,,
554,74602000,NEGROS,NIR,NEGROS ORIENTAL,AYUNGON,,9.8583714,123.1469589,M,L,7775265511,9.8591992,123.1461134,130.5851484503957,,
645,74604000,NEGROS,NIR,NEGROS ORIENTAL,BAIS,,9.5890922,123.1210542,M,L,1621090236,9.5888284,123.1214641,53.66775052136471,,
616,74621000,NEGROS,NIR,NEGROS ORIENTAL,TANJAY,,9.5161638,123.1551826,C,L,5826253615,9.5160036,123.1555782,46.89822153750316,,
601,74615000,NEGROS,NIR,NEGROS ORIENTAL,MANJUYOD,,9.6782819,123.1495285,C,L,1621090549,9.6779608,123.1497891,45.72514665,,
600,74614000,NEGROS,NIR,NEGROS ORIENTAL,MABINAY,,9.7271348,122.9275811,M,L,1909670445,9.7278493,122.9277536,81.66724243093296,,
610,74617000,NEGROS,NIR,NEGROS ORIENTAL,SAN JOSE,,9.41351,123.24104,E,LS*,2887173360,9.4131265,123.2408765,46.26161746590221,,
611,74619000,NEGROS,NIR,NEGROS ORIENTAL,SIATON,,9.0640844,123.0335069,E,L,2911556411,9.0641991,123.033888,43.74769396976958,,
599,74613000,NEGROS,NIR,NEGROS ORIENTAL,LA LIBERTAD,,10.0267782,123.2332778,Z,L,296331610,10.0259659,123.2333322,90.51996314,,
618,74622000,NEGROS,NIR,NEGROS ORIENTAL,TAYASAN,,9.9232541,123.1716272,Z,L,2552592587,9.9231758,123.1722473,68.47628168,,
562,74605000,NEGROS,NIR,NEGROS ORIENTAL,BASAY,,9.4052364,122.6424703,G,L,6056315888,9.405247,122.6425722,11.240429644739903,,
569,74607000,NEGROS,NIR,NEGROS ORIENTAL,BINDOY (PAYABON),,9.7641967,123.1437644,G,L,1621091257,9.7639593,123.1431653,70.76031797,,
646,76106000,SIQUIJOR,NIR,SIQUIJOR,SIQUIJOR,Y,9.2140152,123.513853,G,LS*,9548985427,9.2141728,123.5139864,22.836190568996056,26861,28915
656,76104000,SIQUIJOR,NIR,SIQUIJOR,MARIA,,9.1970675,123.6551517,C,L,3822469612,9.1972605,123.6556288,56.59583070588145,13828,14385
653,76103000,SIQUIJOR,NIR,SIQUIJOR,LAZI,,9.1310059,123.6317736,G,L,5391414571,9.1300913,123.632595,135.92213455781132,20490,22488
651,76102000,SIQUIJOR,NIR,SIQUIJOR,LARENA,,9.2488057,123.5913849,C,LS*,8944063783,9.2484777,123.5913263,37.03468266307861,13847,14454
652,76101000,SIQUIJOR,NIR,SIQUIJOR,ENRIQUE VILLANUEVA,,9.2743515,123.6470032,C,L,5971357076,9.2752807,123.6465807,113.24890302220496,6104,6790
658,76105000,SIQUIJOR,NIR,SIQUIJOR,SAN JUAN,,9.1573759,123.4937257,M,L,3392194151,9.1575854,123.4943892,76.47216217660709,14854,16363